{
  "cities": [
    {
      "size": 2,
      "name": "goroka",
      "lat": -6.082,
      "long": 145.392
    },
    {
      "size": 2,
      "name": "madang",
      "lat": -5.207,
      "long": 145.789
    },
    {
      "size": 2,
      "name": "mount hagen",
      "lat": -5.826,
      "long": 144.296
    },
    {
      "size": 2,
      "name": "nadzab",
      "lat": -6.57,
      "long": 146.726
    },
    {
      "size": 1,
      "name": "port moresby",
      "lat": -9.443,
      "long": 147.22
    },
    {
      "size": 2,
      "name": "wewak",
      "lat": -3.584,
      "long": 143.669
    },
    {
      "size": 2,
      "name": "narssarssuaq",
      "lat": 61.161,
      "long": -45.427
    },
    {
      "size": 2,
      "name": "nerlerit inaat",
      "lat": 70.739,
      "long": -22.646
    },
    {
      "size": 2,
      "name": "godthaab",
      "lat": 64.191,
      "long": -51.678
    },
    {
      "size": 2,
      "name": "jakobshavn",
      "lat": 69.233,
      "long": -51.067
    },
    {
      "size": 2,
      "name": "kulusuk",
      "lat": 65.583,
      "long": -37.15
    },
    {
      "size": 2,
      "name": "sondrestrom",
      "lat": 67.017,
      "long": -50.689
    },
    {
      "size": 2,
      "name": "thule",
      "lat": 76.531,
      "long": -68.703
    },
    {
      "size": 2,
      "name": "akureyri",
      "lat": 65.66,
      "long": -18.072
    },
    {
      "size": 2,
      "name": "egilsstadir",
      "lat": 65.283,
      "long": -14.401
    },
    {
      "size": 2,
      "name": "hofn",
      "lat": 64.296,
      "long": -15.227
    },
    {
      "size": 2,
      "name": "husavik",
      "lat": 65.952,
      "long": -17.426
    },
    {
      "size": 2,
      "name": "isafjordur",
      "lat": 66.058,
      "long": -23.135
    },
    {
      "size": 2,
      "name": "keflavik",
      "lat": 63.985,
      "long": -22.606
    },
    {
      "size": 2,
      "name": "kopasker",
      "lat": 66.314,
      "long": -16.461
    },
    {
      "size": 2,
      "name": "patreksfjordur",
      "lat": 65.556,
      "long": -23.965
    },
    {
      "size": 2,
      "name": "reykjavik",
      "lat": 64.13,
      "long": -21.941
    },
    {
      "size": 2,
      "name": "siglufjordur",
      "lat": 66.133,
      "long": -18.917
    },
    {
      "size": 2,
      "name": "vestmannaeyjar",
      "lat": 63.424,
      "long": -20.279
    },
    {
      "size": 2,
      "name": "sault sainte marie",
      "lat": 46.485,
      "long": -84.509
    },
    {
      "size": 0,
      "name": "winnipeg",
      "lat": 50.056,
      "long": -97.032
    },
    {
      "size": 1,
      "name": "halifax",
      "lat": 44.64,
      "long": -63.499
    },
    {
      "size": 2,
      "name": "st. anthony",
      "lat": 51.392,
      "long": -56.084
    },
    {
      "size": 2,
      "name": "tofino",
      "lat": 49.082,
      "long": -125.772
    },
    {
      "size": 2,
      "name": "pelly bay",
      "lat": 68.534,
      "long": -89.808
    },
    {
      "size": 2,
      "name": "baie comeau",
      "lat": 49.132,
      "long": -68.207
    },
    {
      "size": 2,
      "name": "bagotville",
      "lat": 48.331,
      "long": -70.996
    },
    {
      "size": 2,
      "name": "baker lake",
      "lat": 64.299,
      "long": -96.078
    },
    {
      "size": 2,
      "name": "campbell river",
      "lat": 49.951,
      "long": -125.271
    },
    {
      "size": 2,
      "name": "brandon",
      "lat": 49.91,
      "long": -99.952
    },
    {
      "size": 2,
      "name": "cambridge bay",
      "lat": 69.108,
      "long": -105.138
    },
    {
      "size": 2,
      "name": "nanaimo",
      "lat": 49.052,
      "long": -123.87
    },
    {
      "size": 2,
      "name": "castlegar",
      "lat": 49.296,
      "long": -117.632
    },
    {
      "size": 2,
      "name": "chatham",
      "lat": 47.008,
      "long": -65.449
    },
    {
      "size": 2,
      "name": "charlo",
      "lat": 47.991,
      "long": -66.331
    },
    {
      "size": 2,
      "name": "coppermine",
      "lat": 67.817,
      "long": -115.144
    },
    {
      "size": 2,
      "name": "coronation",
      "lat": 52.075,
      "long": -111.445
    },
    {
      "size": 2,
      "name": "chilliwack",
      "lat": 49.153,
      "long": -121.939
    },
    {
      "size": 2,
      "name": "clyde river",
      "lat": 70.486,
      "long": -68.517
    },
    {
      "size": 2,
      "name": "coral harbour",
      "lat": 50.332,
      "long": -115.874
    },
    {
      "size": 2,
      "name": "dawson",
      "lat": 64.043,
      "long": -139.128
    },
    {
      "size": 2,
      "name": "burwash",
      "lat": 61.371,
      "long": -139.041
    },
    {
      "size": 2,
      "name": "princeton",
      "lat": 49.468,
      "long": -120.512
    },
    {
      "size": 2,
      "name": "deer lake",
      "lat": 49.211,
      "long": -57.391
    },
    {
      "size": 2,
      "name": "dease lake",
      "lat": 58.422,
      "long": -130.032
    },
    {
      "size": 2,
      "name": "dauphin",
      "lat": 51.101,
      "long": -100.052
    },
    {
      "size": 2,
      "name": "dawson creek",
      "lat": 55.742,
      "long": -120.182
    },
    {
      "size": 0,
      "name": "edmonton",
      "lat": 53.667,
      "long": -113.467
    },
    {
      "size": 2,
      "name": "eskimo point",
      "lat": 61.094,
      "long": -94.071
    },
    {
      "size": 2,
      "name": "estevan",
      "lat": 49.21,
      "long": -102.966
    },
    {
      "size": 2,
      "name": "edson",
      "lat": 53.579,
      "long": -116.465
    },
    {
      "size": 2,
      "name": "eureka",
      "lat": 79.995,
      "long": -85.813
    },
    {
      "size": 2,
      "name": "inuvik",
      "lat": 68.304,
      "long": -133.483
    },
    {
      "size": 2,
      "name": "iqaluit",
      "lat": 63.756,
      "long": -68.556
    },
    {
      "size": 2,
      "name": "fredericton",
      "lat": 45.869,
      "long": -66.532
    },
    {
      "size": 2,
      "name": "forestville",
      "lat": 48.746,
      "long": -69.097
    },
    {
      "size": 2,
      "name": "flin flon",
      "lat": 54.678,
      "long": -101.682
    },
    {
      "size": 2,
      "name": "fort resolution",
      "lat": 61.181,
      "long": -113.69
    },
    {
      "size": 2,
      "name": "fort simpson",
      "lat": 61.76,
      "long": -121.237
    },
    {
      "size": 0,
      "name": "kingston",
      "lat": 44.225,
      "long": -76.597
    },
    {
      "size": 2,
      "name": "la grande riviere",
      "lat": 53.625,
      "long": -77.704
    },
    {
      "size": 2,
      "name": "gaspe",
      "lat": 48.775,
      "long": -64.479
    },
    {
      "size": 2,
      "name": "geraldton",
      "lat": 49.778,
      "long": -86.939
    },
    {
      "size": 2,
      "name": "iles de la madeleine",
      "lat": 47.425,
      "long": -61.778
    },
    {
      "size": 2,
      "name": "kuujjuararapik",
      "lat": 55.283,
      "long": -77.767
    },
    {
      "size": 2,
      "name": "gillam",
      "lat": 56.35,
      "long": -94.7
    },
    {
      "size": 2,
      "name": "hudson bay",
      "lat": 52.817,
      "long": -102.311
    },
    {
      "size": 2,
      "name": "dryden",
      "lat": 49.832,
      "long": -92.744
    },
    {
      "size": 2,
      "name": "holman island",
      "lat": 70.763,
      "long": -117.806
    },
    {
      "size": 2,
      "name": "gjoa haven",
      "lat": 68.636,
      "long": -95.85
    },
    {
      "size": 0,
      "name": "hamilton",
      "lat": 43.173,
      "long": -79.935
    },
    {
      "size": 2,
      "name": "montreal",
      "lat": 45.517,
      "long": -73.417
    },
    {
      "size": 2,
      "name": "hay river",
      "lat": 60.84,
      "long": -115.783
    },
    {
      "size": 2,
      "name": "atikokan",
      "lat": 48.774,
      "long": -91.639
    },
    {
      "size": 2,
      "name": "pond inlet",
      "lat": 72.683,
      "long": -77.967
    },
    {
      "size": 2,
      "name": "st. jean",
      "lat": 45.294,
      "long": -73.281
    },
    {
      "size": 2,
      "name": "stephenville",
      "lat": 48.544,
      "long": -58.55
    },
    {
      "size": 2,
      "name": "kamloops",
      "lat": 50.702,
      "long": -120.442
    },
    {
      "size": 2,
      "name": "waterloo",
      "lat": 43.459,
      "long": -80.384
    },
    {
      "size": 2,
      "name": "schefferville",
      "lat": 54.805,
      "long": -66.805
    },
    {
      "size": 2,
      "name": "kindersley",
      "lat": 51.517,
      "long": -109.181
    },
    {
      "size": 0,
      "name": "toronto",
      "lat": 43.862,
      "long": -79.37
    },
    {
      "size": 2,
      "name": "chapleau",
      "lat": 47.82,
      "long": -83.346
    },
    {
      "size": 2,
      "name": "meadow lake",
      "lat": 54.125,
      "long": -108.523
    },
    {
      "size": 2,
      "name": "lloydminster",
      "lat": 53.309,
      "long": -110.072
    },
    {
      "size": 2,
      "name": "alert",
      "lat": 82.518,
      "long": -62.281
    },
    {
      "size": 2,
      "name": "kelowna",
      "lat": 49.956,
      "long": -119.378
    },
    {
      "size": 2,
      "name": "mayo",
      "lat": 63.617,
      "long": -135.867
    },
    {
      "size": 2,
      "name": "moose jaw",
      "lat": 50.33,
      "long": -105.559
    },
    {
      "size": 2,
      "name": "fort mcmurray",
      "lat": 56.653,
      "long": -111.222
    },
    {
      "size": 2,
      "name": "moosonee",
      "lat": 51.291,
      "long": -80.608
    },
    {
      "size": 2,
      "name": "maniwaki",
      "lat": 46.274,
      "long": -75.99
    },
    {
      "size": 2,
      "name": "natashquan",
      "lat": 50.19,
      "long": -61.789
    },
    {
      "size": 2,
      "name": "gatineau",
      "lat": 45.521,
      "long": -75.564
    },
    {
      "size": 2,
      "name": "matagami",
      "lat": 49.762,
      "long": -77.803
    },
    {
      "size": 2,
      "name": "old crow",
      "lat": 67.571,
      "long": -139.839
    },
    {
      "size": 2,
      "name": "cold lake",
      "lat": 54.405,
      "long": -110.279
    },
    {
      "size": 2,
      "name": "high level",
      "lat": 58.621,
      "long": -117.165
    },
    {
      "size": 0,
      "name": "ottawa",
      "lat": 45.323,
      "long": -75.669
    },
    {
      "size": 2,
      "name": "prince albert",
      "lat": 53.214,
      "long": -105.673
    },
    {
      "size": 2,
      "name": "peace river",
      "lat": 56.227,
      "long": -117.447
    },
    {
      "size": 2,
      "name": "portage-la-prairie",
      "lat": 49.903,
      "long": -98.275
    },
    {
      "size": 2,
      "name": "pitt meadows",
      "lat": 49.216,
      "long": -122.71
    },
    {
      "size": 2,
      "name": "pickle lake",
      "lat": 51.446,
      "long": -90.214
    },
    {
      "size": 2,
      "name": "port menier",
      "lat": 49.836,
      "long": -64.289
    },
    {
      "size": 2,
      "name": "peterborough",
      "lat": 44.23,
      "long": -78.363
    },
    {
      "size": 2,
      "name": "prince pupert",
      "lat": 54.286,
      "long": -130.445
    },
    {
      "size": 2,
      "name": "fort chipewyan",
      "lat": 58.767,
      "long": -111.117
    },
    {
      "size": 2,
      "name": "muskoka",
      "lat": 44.975,
      "long": -79.303
    },
    {
      "size": 2,
      "name": "quebec",
      "lat": 46.788,
      "long": -71.398
    },
    {
      "size": 2,
      "name": "red deer industrial",
      "lat": 52.179,
      "long": -113.893
    },
    {
      "size": 1,
      "name": "windsor",
      "lat": 42.276,
      "long": -82.956
    },
    {
      "size": 2,
      "name": "watson lake",
      "lat": 60.118,
      "long": -128.822
    },
    {
      "size": 2,
      "name": "kenora",
      "lat": 49.788,
      "long": -94.363
    },
    {
      "size": 2,
      "name": "lethbridge",
      "lat": 49.63,
      "long": -112.8
    },
    {
      "size": 2,
      "name": "moncton",
      "lat": 46.112,
      "long": -64.679
    },
    {
      "size": 2,
      "name": "nakina",
      "lat": 50.183,
      "long": -86.696
    },
    {
      "size": 2,
      "name": "comox",
      "lat": 49.711,
      "long": -124.887
    },
    {
      "size": 2,
      "name": "regina",
      "lat": 50.432,
      "long": -104.666
    },
    {
      "size": 2,
      "name": "thunder bay",
      "lat": 48.372,
      "long": -89.324
    },
    {
      "size": 2,
      "name": "grande prairie",
      "lat": 55.18,
      "long": -118.885
    },
    {
      "size": 2,
      "name": "yorkton",
      "lat": 51.265,
      "long": -102.462
    },
    {
      "size": 2,
      "name": "north battleford",
      "lat": 52.769,
      "long": -108.244
    },
    {
      "size": 2,
      "name": "gander",
      "lat": 48.937,
      "long": -54.568
    },
    {
      "size": 0,
      "name": "sydney",
      "lat": 46.161,
      "long": -60.048
    },
    {
      "size": 2,
      "name": "quesnel",
      "lat": 53.026,
      "long": -122.51
    },
    {
      "size": 2,
      "name": "resolute",
      "lat": 74.717,
      "long": -94.969
    },
    {
      "size": 2,
      "name": "riviere du loup",
      "lat": 47.764,
      "long": -69.585
    },
    {
      "size": 2,
      "name": "roberval",
      "lat": 48.52,
      "long": -72.266
    },
    {
      "size": 2,
      "name": "rocky mountain house",
      "lat": 52.43,
      "long": -114.904
    },
    {
      "size": 2,
      "name": "rankin inlet",
      "lat": 62.811,
      "long": -92.116
    },
    {
      "size": 2,
      "name": "sudbury",
      "lat": 46.625,
      "long": -80.799
    },
    {
      "size": 2,
      "name": "sherbrooke",
      "lat": 45.438,
      "long": -71.691
    },
    {
      "size": 2,
      "name": "st. john",
      "lat": 45.316,
      "long": -65.89
    },
    {
      "size": 2,
      "name": "fort smith",
      "lat": 60.022,
      "long": -111.96
    },
    {
      "size": 2,
      "name": "nanisivik",
      "lat": 72.982,
      "long": -84.614
    },
    {
      "size": 2,
      "name": "summerside",
      "lat": 46.443,
      "long": -63.831
    },
    {
      "size": 2,
      "name": "sachs harbour",
      "lat": 71.994,
      "long": -125.243
    },
    {
      "size": 2,
      "name": "cape dorset",
      "lat": 64.23,
      "long": -76.527
    },
    {
      "size": 2,
      "name": "thompson",
      "lat": 55.801,
      "long": -97.864
    },
    {
      "size": 2,
      "name": "trenton",
      "lat": 44.119,
      "long": -77.528
    },
    {
      "size": 2,
      "name": "timmins",
      "lat": 48.57,
      "long": -81.377
    },
    {
      "size": 2,
      "name": "tuktoyaktuk",
      "lat": 69.433,
      "long": -133.026
    },
    {
      "size": 2,
      "name": "repulse bay",
      "lat": 66.521,
      "long": -86.225
    },
    {
      "size": 2,
      "name": "hall beach",
      "lat": 68.776,
      "long": -81.244
    },
    {
      "size": 2,
      "name": "rouyn",
      "lat": 48.206,
      "long": -78.836
    },
    {
      "size": 2,
      "name": "la ronge",
      "lat": 55.151,
      "long": -105.262
    },
    {
      "size": 2,
      "name": "vermillion",
      "lat": 53.356,
      "long": -110.824
    },
    {
      "size": 2,
      "name": "broughton island",
      "lat": 67.546,
      "long": -64.031
    },
    {
      "size": 2,
      "name": "val d'or",
      "lat": 48.053,
      "long": -77.783
    },
    {
      "size": 2,
      "name": "quujjuaq",
      "lat": 58.096,
      "long": -68.427
    },
    {
      "size": 2,
      "name": "norman wells",
      "lat": 65.282,
      "long": -126.8
    },
    {
      "size": 0,
      "name": "vancouver",
      "lat": 49.195,
      "long": -123.182
    },
    {
      "size": 2,
      "name": "buffalo narrows",
      "lat": 55.842,
      "long": -108.418
    },
    {
      "size": 2,
      "name": "wiarton",
      "lat": 44.746,
      "long": -81.107
    },
    {
      "size": 2,
      "name": "petawawa",
      "lat": 45.952,
      "long": -77.319
    },
    {
      "size": 2,
      "name": "wabush",
      "lat": 52.922,
      "long": -66.864
    },
    {
      "size": 2,
      "name": "williams lake",
      "lat": 52.183,
      "long": -122.054
    },
    {
      "size": 2,
      "name": "wrigley",
      "lat": 63.209,
      "long": -123.437
    },
    {
      "size": 2,
      "name": "cranbrook",
      "lat": 49.61,
      "long": -115.782
    },
    {
      "size": 1,
      "name": "saskatoon",
      "lat": 52.171,
      "long": -106.7
    },
    {
      "size": 2,
      "name": "medicine hat",
      "lat": 50.019,
      "long": -110.721
    },
    {
      "size": 2,
      "name": "fort saint john",
      "lat": 56.238,
      "long": -120.74
    },
    {
      "size": 2,
      "name": "sioux lookout",
      "lat": 50.114,
      "long": -91.904
    },
    {
      "size": 2,
      "name": "pangnirtung",
      "lat": 66.145,
      "long": -65.714
    },
    {
      "size": 2,
      "name": "earlton",
      "lat": 47.695,
      "long": -79.849
    },
    {
      "size": 2,
      "name": "prince george",
      "lat": 53.889,
      "long": -122.679
    },
    {
      "size": 2,
      "name": "terrace",
      "lat": 54.466,
      "long": -128.577
    },
    {
      "size": 1,
      "name": "london",
      "lat": 43.036,
      "long": -81.154
    },
    {
      "size": 2,
      "name": "abbotsford",
      "lat": 49.025,
      "long": -122.363
    },
    {
      "size": 2,
      "name": "whitehorse",
      "lat": 60.709,
      "long": -135.068
    },
    {
      "size": 2,
      "name": "north bay",
      "lat": 46.364,
      "long": -79.423
    },
    {
      "size": 0,
      "name": "calgary",
      "lat": 51.114,
      "long": -114.02
    },
    {
      "size": 2,
      "name": "smithers",
      "lat": 54.825,
      "long": -127.183
    },
    {
      "size": 2,
      "name": "fort nelson",
      "lat": 58.836,
      "long": -122.597
    },
    {
      "size": 2,
      "name": "penticton",
      "lat": 49.463,
      "long": -119.602
    },
    {
      "size": 2,
      "name": "charlottetown",
      "lat": 46.29,
      "long": -63.121
    },
    {
      "size": 2,
      "name": "spence bay",
      "lat": 69.547,
      "long": -93.577
    },
    {
      "size": 1,
      "name": "victoria",
      "lat": 48.647,
      "long": -123.426
    },
    {
      "size": 2,
      "name": "lynn lake",
      "lat": 56.864,
      "long": -101.076
    },
    {
      "size": 2,
      "name": "swift current",
      "lat": 50.292,
      "long": -107.691
    },
    {
      "size": 2,
      "name": "churchill",
      "lat": 58.739,
      "long": -94.065
    },
    {
      "size": 2,
      "name": "goose bay",
      "lat": 53.319,
      "long": -60.426
    },
    {
      "size": 2,
      "name": "st. john's",
      "lat": 47.619,
      "long": -52.752
    },
    {
      "size": 2,
      "name": "kapuskasing",
      "lat": 49.414,
      "long": -82.468
    },
    {
      "size": 2,
      "name": "armstrong",
      "lat": 50.29,
      "long": -88.91
    },
    {
      "size": 2,
      "name": "mont joli",
      "lat": 48.609,
      "long": -68.208
    },
    {
      "size": 2,
      "name": "gore bay",
      "lat": 45.885,
      "long": -82.568
    },
    {
      "size": 2,
      "name": "yellowknife",
      "lat": 62.463,
      "long": -114.44
    },
    {
      "size": 2,
      "name": "slave lake",
      "lat": 55.293,
      "long": -114.778
    },
    {
      "size": 2,
      "name": "sandspit",
      "lat": 53.254,
      "long": -131.814
    },
    {
      "size": 2,
      "name": "sarnia",
      "lat": 42.999,
      "long": -82.309
    },
    {
      "size": 2,
      "name": "port hardy",
      "lat": 50.681,
      "long": -127.367
    },
    {
      "size": 2,
      "name": "whitecourt",
      "lat": 54.144,
      "long": -115.787
    },
    {
      "size": 2,
      "name": "sept-iles",
      "lat": 50.223,
      "long": -66.266
    },
    {
      "size": 2,
      "name": "teslin",
      "lat": 60.173,
      "long": -132.743
    },
    {
      "size": 2,
      "name": "greenwood",
      "lat": 44.984,
      "long": -64.917
    },
    {
      "size": 2,
      "name": "faro",
      "lat": 62.208,
      "long": -133.376
    },
    {
      "size": 2,
      "name": "fort mcpherson",
      "lat": 67.408,
      "long": -134.86
    },
    {
      "size": 2,
      "name": "blida",
      "lat": 36.504,
      "long": 2.814
    },
    {
      "size": 2,
      "name": "bou saada",
      "lat": 35.333,
      "long": 4.206
    },
    {
      "size": 2,
      "name": "bejaja",
      "lat": 36.712,
      "long": 5.07
    },
    {
      "size": 2,
      "name": "algier",
      "lat": 36.691,
      "long": 3.215
    },
    {
      "size": 2,
      "name": "djanet",
      "lat": 24.293,
      "long": 9.452
    },
    {
      "size": 2,
      "name": "boufarik",
      "lat": 36.546,
      "long": 2.876
    },
    {
      "size": 2,
      "name": "telergma",
      "lat": 36.109,
      "long": 6.364
    },
    {
      "size": 2,
      "name": "reggan",
      "lat": 26.71,
      "long": 0.286
    },
    {
      "size": 2,
      "name": "illizi",
      "lat": 26.573,
      "long": 8.484
    },
    {
      "size": 2,
      "name": "ain oussera",
      "lat": 35.525,
      "long": 2.879
    },
    {
      "size": 2,
      "name": "setif",
      "lat": 36.178,
      "long": 5.324
    },
    {
      "size": 2,
      "name": "tamanrasset",
      "lat": 22.811,
      "long": 5.451
    },
    {
      "size": 2,
      "name": "jijel",
      "lat": 36.795,
      "long": 5.873
    },
    {
      "size": 2,
      "name": "mecheria",
      "lat": 33.536,
      "long": -0.242
    },
    {
      "size": 2,
      "name": "relizane",
      "lat": 35.752,
      "long": 0.626
    },
    {
      "size": 1,
      "name": "annaba",
      "lat": 36.822,
      "long": 7.809
    },
    {
      "size": 1,
      "name": "constantine",
      "lat": 36.277,
      "long": 6.624
    },
    {
      "size": 2,
      "name": "tebessa",
      "lat": 35.431,
      "long": 8.121
    },
    {
      "size": 2,
      "name": "tilrempt",
      "lat": 32.93,
      "long": 3.312
    },
    {
      "size": 2,
      "name": "tiaret",
      "lat": 35.341,
      "long": 1.463
    },
    {
      "size": 2,
      "name": "bou sfer",
      "lat": 35.735,
      "long": -0.805
    },
    {
      "size": 2,
      "name": "tindouf",
      "lat": 27.7,
      "long": -8.167
    },
    {
      "size": 2,
      "name": "ech-cheliff",
      "lat": 36.213,
      "long": 1.332
    },
    {
      "size": 0,
      "name": "oran",
      "lat": 35.542,
      "long": -0.532
    },
    {
      "size": 2,
      "name": "tlemcen",
      "lat": 35.017,
      "long": -1.45
    },
    {
      "size": 2,
      "name": "sidi bel abbes",
      "lat": 35.172,
      "long": -0.593
    },
    {
      "size": 2,
      "name": "ghriss",
      "lat": 35.208,
      "long": 0.147
    },
    {
      "size": 2,
      "name": "adrar",
      "lat": 27.837,
      "long": -0.186
    },
    {
      "size": 2,
      "name": "biskra",
      "lat": 34.793,
      "long": 5.738
    },
    {
      "size": 2,
      "name": "el golea",
      "lat": 30.571,
      "long": 2.859
    },
    {
      "size": 2,
      "name": "ghardaia",
      "lat": 32.384,
      "long": 3.794
    },
    {
      "size": 2,
      "name": "hassi-messaoud",
      "lat": 31.673,
      "long": 6.14
    },
    {
      "size": 2,
      "name": "in salah",
      "lat": 27.251,
      "long": 2.512
    },
    {
      "size": 2,
      "name": "touggourt",
      "lat": 33.068,
      "long": 6.089
    },
    {
      "size": 2,
      "name": "laghouat",
      "lat": 33.764,
      "long": 2.927
    },
    {
      "size": 2,
      "name": "timimoun",
      "lat": 29.237,
      "long": 0.276
    },
    {
      "size": 2,
      "name": "ouargla",
      "lat": 31.917,
      "long": 5.413
    },
    {
      "size": 2,
      "name": "zarzaitine",
      "lat": 28.051,
      "long": 9.643
    },
    {
      "size": 0,
      "name": "cotonou",
      "lat": 6.357,
      "long": 2.384
    },
    {
      "size": 2,
      "name": "parakou",
      "lat": 9.357,
      "long": 2.609
    },
    {
      "size": 0,
      "name": "ouagadougou",
      "lat": 12.353,
      "long": -1.512
    },
    {
      "size": 2,
      "name": "bobo-dioulasso",
      "lat": 11.16,
      "long": -4.331
    },
    {
      "size": 0,
      "name": "accra",
      "lat": 5.603,
      "long": -0.168
    },
    {
      "size": 2,
      "name": "tamale",
      "lat": 9.563,
      "long": -0.863
    },
    {
      "size": 2,
      "name": "wa",
      "lat": 10.082,
      "long": -2.507
    },
    {
      "size": 2,
      "name": "sunyani",
      "lat": 7.362,
      "long": -2.329
    },
    {
      "size": 2,
      "name": "takoradi",
      "lat": 4.893,
      "long": -1.775
    },
    {
      "size": 0,
      "name": "abidjan",
      "lat": 5.26,
      "long": -3.926
    },
    {
      "size": 1,
      "name": "bouake",
      "lat": 7.739,
      "long": -5.074
    },
    {
      "size": 2,
      "name": "daloa",
      "lat": 6.792,
      "long": -6.473
    },
    {
      "size": 2,
      "name": "korhogo",
      "lat": 9.387,
      "long": -5.556
    },
    {
      "size": 2,
      "name": "man",
      "lat": 7.272,
      "long": -7.587
    },
    {
      "size": 2,
      "name": "san pedro",
      "lat": 4.747,
      "long": -6.661
    },
    {
      "size": 2,
      "name": "yamoussoukro",
      "lat": 6.903,
      "long": -5.366
    },
    {
      "size": 1,
      "name": "abuja",
      "lat": 9.007,
      "long": 7.263
    },
    {
      "size": 1,
      "name": "akure",
      "lat": 7.247,
      "long": 5.301
    },
    {
      "size": 2,
      "name": "benin",
      "lat": 6.317,
      "long": 5.599
    },
    {
      "size": 1,
      "name": "calabar",
      "lat": 4.976,
      "long": 8.347
    },
    {
      "size": 1,
      "name": "enugu",
      "lat": 6.474,
      "long": 7.562
    },
    {
      "size": 2,
      "name": "gusau",
      "lat": 12.172,
      "long": 6.696
    },
    {
      "size": 0,
      "name": "ibadan",
      "lat": 7.362,
      "long": 3.978
    },
    {
      "size": 0,
      "name": "ilorin",
      "lat": 8.44,
      "long": 4.494
    },
    {
      "size": 1,
      "name": "jos",
      "lat": 9.64,
      "long": 8.869
    },
    {
      "size": 0,
      "name": "kaduna",
      "lat": 10.696,
      "long": 7.32
    },
    {
      "size": 0,
      "name": "kano",
      "lat": 12.047,
      "long": 8.524
    },
    {
      "size": 0,
      "name": "maiduguri",
      "lat": 11.855,
      "long": 13.081
    },
    {
      "size": 2,
      "name": "makurdi",
      "lat": 7.704,
      "long": 8.614
    },
    {
      "size": 0,
      "name": "lagos",
      "lat": 6.577,
      "long": 3.321
    },
    {
      "size": 2,
      "name": "minna",
      "lat": 9.652,
      "long": 6.462
    },
    {
      "size": 2,
      "name": "port hartcourt",
      "lat": 5.015,
      "long": 6.949
    },
    {
      "size": 1,
      "name": "sokoto",
      "lat": 12.916,
      "long": 5.207
    },
    {
      "size": 2,
      "name": "yola",
      "lat": 9.26,
      "long": 12.43
    },
    {
      "size": 0,
      "name": "zaria",
      "lat": 11.13,
      "long": 7.686
    },
    {
      "size": 2,
      "name": "maradi",
      "lat": 13.502,
      "long": 7.127
    },
    {
      "size": 0,
      "name": "niamey",
      "lat": 13.481,
      "long": 2.184
    },
    {
      "size": 2,
      "name": "tahoua",
      "lat": 14.876,
      "long": 5.265
    },
    {
      "size": 2,
      "name": "agadez",
      "lat": 16.965,
      "long": 7.997
    },
    {
      "size": 2,
      "name": "dirkou",
      "lat": 18.969,
      "long": 12.869
    },
    {
      "size": 2,
      "name": "diffa",
      "lat": 13.373,
      "long": 12.627
    },
    {
      "size": 2,
      "name": "zinder",
      "lat": 13.779,
      "long": 8.984
    },
    {
      "size": 2,
      "name": "tanout",
      "lat": 14.999,
      "long": 8.767
    },
    {
      "size": 2,
      "name": "monastir",
      "lat": 35.758,
      "long": 10.755
    },
    {
      "size": 0,
      "name": "tunis",
      "lat": 36.851,
      "long": 10.227
    },
    {
      "size": 2,
      "name": "bizerte",
      "lat": 37.245,
      "long": 9.791
    },
    {
      "size": 2,
      "name": "remada",
      "lat": 32.306,
      "long": 10.382
    },
    {
      "size": 2,
      "name": "gafsa",
      "lat": 34.422,
      "long": 8.822
    },
    {
      "size": 2,
      "name": "gabes",
      "lat": 33.877,
      "long": 10.103
    },
    {
      "size": 2,
      "name": "bordj el amri",
      "lat": 36.721,
      "long": 9.943
    },
    {
      "size": 2,
      "name": "djerba",
      "lat": 33.875,
      "long": 10.775
    },
    {
      "size": 2,
      "name": "el borma",
      "lat": 31.704,
      "long": 9.254
    },
    {
      "size": 1,
      "name": "sfax",
      "lat": 34.718,
      "long": 10.691
    },
    {
      "size": 2,
      "name": "tozeur",
      "lat": 33.94,
      "long": 8.111
    },
    {
      "size": 2,
      "name": "niatougou",
      "lat": 9.767,
      "long": 1.091
    },
    {
      "size": 1,
      "name": "lome",
      "lat": 6.166,
      "long": 1.254
    },
    {
      "size": 2,
      "name": "antwerp",
      "lat": 51.19,
      "long": 4.463
    },
    {
      "size": 2,
      "name": "beauvechain",
      "lat": 50.759,
      "long": 4.768
    },
    {
      "size": 2,
      "name": "kleine brogel",
      "lat": 51.168,
      "long": 5.471
    },
    {
      "size": 0,
      "name": "brussels",
      "lat": 50.902,
      "long": 4.499
    },
    {
      "size": 2,
      "name": "brasschaat",
      "lat": 51.333,
      "long": 4.5
    },
    {
      "size": 2,
      "name": "bertrix",
      "lat": 49.887,
      "long": 5.229
    },
    {
      "size": 2,
      "name": "charleroi",
      "lat": 50.459,
      "long": 4.454
    },
    {
      "size": 2,
      "name": "chievres",
      "lat": 50.576,
      "long": 3.831
    },
    {
      "size": 2,
      "name": "koksijde",
      "lat": 51.09,
      "long": 2.653
    },
    {
      "size": 2,
      "name": "florennes",
      "lat": 50.244,
      "long": 4.649
    },
    {
      "size": 2,
      "name": "kortrijk-vevelgem",
      "lat": 50.818,
      "long": 3.208
    },
    {
      "size": 2,
      "name": "liege",
      "lat": 50.637,
      "long": 5.443
    },
    {
      "size": 2,
      "name": "ostend",
      "lat": 51.199,
      "long": 2.862
    },
    {
      "size": 2,
      "name": "zutendaal",
      "lat": 50.948,
      "long": 5.592
    },
    {
      "size": 2,
      "name": "sint-truiden",
      "lat": 50.788,
      "long": 5.193
    },
    {
      "size": 2,
      "name": "ursel",
      "lat": 51.144,
      "long": 3.474
    },
    {
      "size": 2,
      "name": "weelde",
      "lat": 51.395,
      "long": 4.961
    },
    {
      "size": 2,
      "name": "zoersel",
      "lat": 51.266,
      "long": 4.755
    },
    {
      "size": 2,
      "name": "bautzen",
      "lat": 51.193,
      "long": 14.52
    },
    {
      "size": 2,
      "name": "altenburg",
      "lat": 50.982,
      "long": 12.506
    },
    {
      "size": 2,
      "name": "dessau",
      "lat": 51.832,
      "long": 12.186
    },
    {
      "size": 2,
      "name": "eisenhuettenstadt",
      "lat": 52.197,
      "long": 14.586
    },
    {
      "size": 2,
      "name": "heringsdorf",
      "lat": 53.879,
      "long": 14.152
    },
    {
      "size": 2,
      "name": "suhl",
      "lat": 51.308,
      "long": 13.555
    },
    {
      "size": 2,
      "name": "muehlhausen",
      "lat": 51.363,
      "long": 11.941
    },
    {
      "size": 1,
      "name": "halle",
      "lat": 51.552,
      "long": 12.053
    },
    {
      "size": 2,
      "name": "riesa",
      "lat": 51.294,
      "long": 13.359
    },
    {
      "size": 2,
      "name": "rechlin-laerz",
      "lat": 53.306,
      "long": 12.753
    },
    {
      "size": 2,
      "name": "strausberg",
      "lat": 52.58,
      "long": 13.916
    },
    {
      "size": 2,
      "name": "schoenhagen",
      "lat": 52.203,
      "long": 13.159
    },
    {
      "size": 2,
      "name": "cochstedt",
      "lat": 51.856,
      "long": 11.418
    },
    {
      "size": 2,
      "name": "gotha ost",
      "lat": 35.461,
      "long": -77.965
    },
    {
      "size": 2,
      "name": "barth",
      "lat": 54.338,
      "long": 12.71
    },
    {
      "size": 2,
      "name": "jena",
      "lat": 50.917,
      "long": 11.714
    },
    {
      "size": 2,
      "name": "kyritz",
      "lat": 52.919,
      "long": 12.425
    },
    {
      "size": 2,
      "name": "magdeburg",
      "lat": 52.074,
      "long": 11.626
    },
    {
      "size": 2,
      "name": "neubrandenburg",
      "lat": 51.328,
      "long": 12.657
    },
    {
      "size": 2,
      "name": "rothenburg/ol",
      "lat": 51.364,
      "long": 14.952
    },
    {
      "size": 2,
      "name": "anklam",
      "lat": 53.833,
      "long": 13.669
    },
    {
      "size": 2,
      "name": "cottbus",
      "lat": 51.889,
      "long": 14.532
    },
    {
      "size": 2,
      "name": "koethen",
      "lat": 51.721,
      "long": 11.962
    },
    {
      "size": 2,
      "name": "kamenz",
      "lat": 51.296,
      "long": 14.129
    },
    {
      "size": 0,
      "name": "berlin",
      "lat": 52.38,
      "long": 13.523
    },
    {
      "size": 1,
      "name": "dresden",
      "lat": 51.133,
      "long": 13.767
    },
    {
      "size": 2,
      "name": "erfurt",
      "lat": 50.98,
      "long": 10.958
    },
    {
      "size": 2,
      "name": "frankfurt",
      "lat": 50.026,
      "long": 8.543
    },
    {
      "size": 2,
      "name": "muenster/osnabrueck",
      "lat": 52.134,
      "long": 7.685
    },
    {
      "size": 0,
      "name": "hamburg",
      "lat": 53.63,
      "long": 9.988
    },
    {
      "size": 2,
      "name": "cologne",
      "lat": 50.866,
      "long": 7.143
    },
    {
      "size": 2,
      "name": "duesseldorf",
      "lat": 51.289,
      "long": 6.767
    },
    {
      "size": 2,
      "name": "munich",
      "lat": 48.354,
      "long": 11.786
    },
    {
      "size": 2,
      "name": "nuernberg",
      "lat": 49.499,
      "long": 11.078
    },
    {
      "size": 1,
      "name": "leipzig",
      "lat": 51.424,
      "long": 12.236
    },
    {
      "size": 2,
      "name": "saarbruecken",
      "lat": 49.214,
      "long": 7.109
    },
    {
      "size": 0,
      "name": "stuttgart",
      "lat": 48.69,
      "long": 9.222
    },
    {
      "size": 1,
      "name": "hannover",
      "lat": 52.461,
      "long": 9.685
    },
    {
      "size": 0,
      "name": "bremen",
      "lat": 53.047,
      "long": 8.787
    },
    {
      "size": 2,
      "name": "egelsbach",
      "lat": 49.961,
      "long": 8.644
    },
    {
      "size": 2,
      "name": "hahn",
      "lat": 49.95,
      "long": 7.264
    },
    {
      "size": 1,
      "name": "mannheim",
      "lat": 49.473,
      "long": 8.514
    },
    {
      "size": 2,
      "name": "allendorf",
      "lat": 51.035,
      "long": 8.679
    },
    {
      "size": 2,
      "name": "worms",
      "lat": 49.606,
      "long": 8.368
    },
    {
      "size": 2,
      "name": "mainz",
      "lat": 49.969,
      "long": 8.147
    },
    {
      "size": 2,
      "name": "eisenach",
      "lat": 50.993,
      "long": 10.473
    },
    {
      "size": 2,
      "name": "siegerland",
      "lat": 50.708,
      "long": 8.082
    },
    {
      "size": 2,
      "name": "kiel",
      "lat": 54.379,
      "long": 10.145
    },
    {
      "size": 2,
      "name": "luebeck",
      "lat": 53.805,
      "long": 10.719
    },
    {
      "size": 1,
      "name": "aachen",
      "lat": 50.823,
      "long": 6.187
    },
    {
      "size": 2,
      "name": "dahlemer binz",
      "lat": 50.406,
      "long": 6.528
    },
    {
      "size": 2,
      "name": "meinerzhagen",
      "lat": 51.099,
      "long": 7.602
    },
    {
      "size": 2,
      "name": "arnsberg",
      "lat": 51.483,
      "long": 7.899
    },
    {
      "size": 2,
      "name": "kamp",
      "lat": 51.53,
      "long": 6.537
    },
    {
      "size": 0,
      "name": "essen",
      "lat": 51.401,
      "long": 6.936
    },
    {
      "size": 2,
      "name": "moenchengladbach",
      "lat": 51.23,
      "long": 6.504
    },
    {
      "size": 2,
      "name": "paderborn",
      "lat": 51.614,
      "long": 8.616
    },
    {
      "size": 2,
      "name": "stadtlohn",
      "lat": 51.996,
      "long": 6.84
    },
    {
      "size": 0,
      "name": "dortmund",
      "lat": 51.518,
      "long": 7.612
    },
    {
      "size": 1,
      "name": "augsburg",
      "lat": 48.425,
      "long": 10.932
    },
    {
      "size": 2,
      "name": "biberach",
      "lat": 48.111,
      "long": 9.763
    },
    {
      "size": 2,
      "name": "eggenfelden",
      "lat": 48.396,
      "long": 12.724
    },
    {
      "size": 2,
      "name": "oberpfaffenhofen",
      "lat": 48.081,
      "long": 11.283
    },
    {
      "size": 2,
      "name": "straubing",
      "lat": 48.901,
      "long": 12.518
    },
    {
      "size": 2,
      "name": "vilshofen",
      "lat": 48.636,
      "long": 13.195
    },
    {
      "size": 2,
      "name": "leutkirch",
      "lat": 47.859,
      "long": 10.014
    },
    {
      "size": 2,
      "name": "friedrichshafen",
      "lat": 47.671,
      "long": 9.511
    },
    {
      "size": 2,
      "name": "parchim",
      "lat": 53.427,
      "long": 11.783
    },
    {
      "size": 2,
      "name": "stendal",
      "lat": 52.629,
      "long": 11.82
    },
    {
      "size": 2,
      "name": "aalen-heidenheim",
      "lat": 48.778,
      "long": 10.264
    },
    {
      "size": 2,
      "name": "coburg",
      "lat": 50.263,
      "long": 10.996
    },
    {
      "size": 2,
      "name": "bayreuth",
      "lat": 49.984,
      "long": 11.638
    },
    {
      "size": 2,
      "name": "burg feuerstein",
      "lat": 49.794,
      "long": 11.132
    },
    {
      "size": 2,
      "name": "hof",
      "lat": 50.289,
      "long": 11.855
    },
    {
      "size": 2,
      "name": "rosenthal",
      "lat": 49.863,
      "long": 11.788
    },
    {
      "size": 2,
      "name": "hassfurt",
      "lat": 50.018,
      "long": 10.529
    },
    {
      "size": 2,
      "name": "koblenz",
      "lat": 50.325,
      "long": 7.531
    },
    {
      "size": 2,
      "name": "trier",
      "lat": 49.863,
      "long": 6.789
    },
    {
      "size": 2,
      "name": "speyer",
      "lat": 49.302,
      "long": 8.451
    },
    {
      "size": 2,
      "name": "zweibruecken",
      "lat": 49.209,
      "long": 7.401
    },
    {
      "size": 2,
      "name": "baden-baden",
      "lat": 48.791,
      "long": 8.187
    },
    {
      "size": 2,
      "name": "donaueschingen",
      "lat": 47.973,
      "long": 8.522
    },
    {
      "size": 2,
      "name": "freiburg",
      "lat": 48.02,
      "long": 7.834
    },
    {
      "size": 1,
      "name": "karlsruhe",
      "lat": 48.982,
      "long": 8.333
    },
    {
      "size": 2,
      "name": "mengen",
      "lat": 48.054,
      "long": 9.373
    },
    {
      "size": 2,
      "name": "schwaebisch hall",
      "lat": 49.118,
      "long": 9.777
    },
    {
      "size": 2,
      "name": "soest",
      "lat": 51.608,
      "long": 13.738
    },
    {
      "size": 1,
      "name": "braunschweig",
      "lat": 52.319,
      "long": 10.556
    },
    {
      "size": 2,
      "name": "kassel",
      "lat": 51.408,
      "long": 9.378
    },
    {
      "size": 2,
      "name": "hildesheim",
      "lat": 52.177,
      "long": 9.946
    },
    {
      "size": 2,
      "name": "bremerhaven",
      "lat": 53.503,
      "long": 8.573
    },
    {
      "size": 2,
      "name": "lemwerder",
      "lat": 53.143,
      "long": 8.623
    },
    {
      "size": 2,
      "name": "emden",
      "lat": 53.391,
      "long": 7.227
    },
    {
      "size": 2,
      "name": "leer",
      "lat": 53.272,
      "long": 7.443
    },
    {
      "size": 2,
      "name": "wilhelmshaven",
      "lat": 53.505,
      "long": 8.053
    },
    {
      "size": 2,
      "name": "borkum",
      "lat": 53.595,
      "long": 6.709
    },
    {
      "size": 2,
      "name": "norderney",
      "lat": 53.707,
      "long": 7.23
    },
    {
      "size": 2,
      "name": "flensburg",
      "lat": 54.772,
      "long": 9.378
    },
    {
      "size": 2,
      "name": "rendsburg",
      "lat": 54.221,
      "long": 9.601
    },
    {
      "size": 2,
      "name": "westerland",
      "lat": 54.913,
      "long": 8.34
    },
    {
      "size": 2,
      "name": "armari air force base",
      "lat": 59.259,
      "long": 24.204
    },
    {
      "size": 2,
      "name": "kardla",
      "lat": 58.991,
      "long": 22.831
    },
    {
      "size": 2,
      "name": "kuressaare",
      "lat": 58.23,
      "long": 22.509
    },
    {
      "size": 2,
      "name": "parnu",
      "lat": 58.419,
      "long": 24.473
    },
    {
      "size": 2,
      "name": "tallinn-ulemiste international",
      "lat": 59.413,
      "long": 24.833
    },
    {
      "size": 2,
      "name": "tartu-ulenurme",
      "lat": 58.307,
      "long": 26.69
    },
    {
      "size": 2,
      "name": "enontekio",
      "lat": 68.362,
      "long": 23.424
    },
    {
      "size": 2,
      "name": "eura",
      "lat": 61.116,
      "long": 22.201
    },
    {
      "size": 2,
      "name": "halli",
      "lat": 61.856,
      "long": 24.786
    },
    {
      "size": 0,
      "name": "helsinki",
      "lat": 60.254,
      "long": 25.043
    },
    {
      "size": 2,
      "name": "hameenkyro",
      "lat": 61.689,
      "long": 23.074
    },
    {
      "size": 2,
      "name": "hanko",
      "lat": 59.849,
      "long": 23.083
    },
    {
      "size": 2,
      "name": "hyvinkaa",
      "lat": 60.654,
      "long": 24.881
    },
    {
      "size": 2,
      "name": "kikala",
      "lat": 60.463,
      "long": 23.652
    },
    {
      "size": 2,
      "name": "immola",
      "lat": 61.249,
      "long": 28.904
    },
    {
      "size": 2,
      "name": "kitee",
      "lat": 62.166,
      "long": 30.074
    },
    {
      "size": 2,
      "name": "ivalo",
      "lat": 68.607,
      "long": 27.405
    },
    {
      "size": 2,
      "name": "joensuu",
      "lat": 62.659,
      "long": 29.624
    },
    {
      "size": 2,
      "name": "jyvaskyla",
      "lat": 62.399,
      "long": 25.678
    },
    {
      "size": 2,
      "name": "kauhava",
      "lat": 63.127,
      "long": 23.051
    },
    {
      "size": 2,
      "name": "kemi",
      "lat": 65.782,
      "long": 24.599
    },
    {
      "size": 2,
      "name": "kajaani",
      "lat": 64.285,
      "long": 27.692
    },
    {
      "size": 2,
      "name": "kauhajoki",
      "lat": 62.463,
      "long": 22.393
    },
    {
      "size": 2,
      "name": "kruunupyy",
      "lat": 63.721,
      "long": 23.143
    },
    {
      "size": 2,
      "name": "kemijarvi",
      "lat": 66.713,
      "long": 27.157
    },
    {
      "size": 2,
      "name": "kuusamo",
      "lat": 65.987,
      "long": 29.239
    },
    {
      "size": 2,
      "name": "kittila",
      "lat": 67.701,
      "long": 24.847
    },
    {
      "size": 2,
      "name": "kuopio",
      "lat": 63.007,
      "long": 27.798
    },
    {
      "size": 2,
      "name": "vesivehmaa",
      "lat": 61.144,
      "long": 25.693
    },
    {
      "size": 2,
      "name": "lappeenranta",
      "lat": 61.044,
      "long": 28.144
    },
    {
      "size": 2,
      "name": "mariehamn",
      "lat": 60.122,
      "long": 19.898
    },
    {
      "size": 2,
      "name": "menkijarvi",
      "lat": 62.947,
      "long": 23.519
    },
    {
      "size": 2,
      "name": "mikkeli",
      "lat": 61.686,
      "long": 27.202
    },
    {
      "size": 2,
      "name": "nummela",
      "lat": 60.334,
      "long": 24.296
    },
    {
      "size": 2,
      "name": "oulu",
      "lat": 64.93,
      "long": 25.354
    },
    {
      "size": 2,
      "name": "piikajarvi",
      "lat": 61.246,
      "long": 22.193
    },
    {
      "size": 2,
      "name": "pori",
      "lat": 61.462,
      "long": 21.8
    },
    {
      "size": 2,
      "name": "pudasjarvi",
      "lat": 65.402,
      "long": 26.947
    },
    {
      "size": 2,
      "name": "pyhasalmi",
      "lat": 63.732,
      "long": 25.926
    },
    {
      "size": 2,
      "name": "pattijoki",
      "lat": 64.688,
      "long": 24.696
    },
    {
      "size": 2,
      "name": "rantasalmi",
      "lat": 62.065,
      "long": 28.356
    },
    {
      "size": 2,
      "name": "rovaniemi",
      "lat": 66.565,
      "long": 25.83
    },
    {
      "size": 2,
      "name": "rayskala",
      "lat": 60.745,
      "long": 24.108
    },
    {
      "size": 2,
      "name": "savonlinna",
      "lat": 61.943,
      "long": 28.945
    },
    {
      "size": 2,
      "name": "selanpaa",
      "lat": 61.062,
      "long": 26.799
    },
    {
      "size": 2,
      "name": "sodankyla",
      "lat": 67.395,
      "long": 26.619
    },
    {
      "size": 2,
      "name": "tampere",
      "lat": 61.414,
      "long": 23.604
    },
    {
      "size": 2,
      "name": "teisko",
      "lat": 61.773,
      "long": 24.027
    },
    {
      "size": 2,
      "name": "turku",
      "lat": 60.514,
      "long": 22.263
    },
    {
      "size": 2,
      "name": "utti",
      "lat": 60.896,
      "long": 26.938
    },
    {
      "size": 2,
      "name": "vaasa",
      "lat": 63.051,
      "long": 21.761
    },
    {
      "size": 2,
      "name": "varkaus",
      "lat": 62.171,
      "long": 27.869
    },
    {
      "size": 2,
      "name": "ylivieska-raudaskyla",
      "lat": 64.06,
      "long": 24.716
    },
    {
      "size": 1,
      "name": "belfast",
      "lat": 54.657,
      "long": -6.216
    },
    {
      "size": 2,
      "name": "enniskillen",
      "lat": 54.399,
      "long": -7.652
    },
    {
      "size": 2,
      "name": "londonderry",
      "lat": 55.043,
      "long": -7.161
    },
    {
      "size": 2,
      "name": "birmingham",
      "lat": 52.454,
      "long": -1.748
    },
    {
      "size": 2,
      "name": "coventry",
      "lat": 52.37,
      "long": -1.48
    },
    {
      "size": 1,
      "name": "leicester",
      "lat": 52.608,
      "long": -1.032
    },
    {
      "size": 2,
      "name": "golouchestershire",
      "lat": 51.894,
      "long": -2.167
    },
    {
      "size": 0,
      "name": "nottingham",
      "lat": 52.92,
      "long": -1.079
    },
    {
      "size": 2,
      "name": "halfpenny green",
      "lat": 52.517,
      "long": -2.26
    },
    {
      "size": 2,
      "name": "pailton",
      "lat": 51.668,
      "long": -2.057
    },
    {
      "size": 2,
      "name": "turweston",
      "lat": 52.041,
      "long": -1.096
    },
    {
      "size": 0,
      "name": "manchester",
      "lat": 53.354,
      "long": -2.275
    },
    {
      "size": 2,
      "name": "woodfort",
      "lat": 53.338,
      "long": -2.149
    },
    {
      "size": 2,
      "name": "sandtoft",
      "lat": 53.56,
      "long": -0.858
    },
    {
      "size": 2,
      "name": "chivenor",
      "lat": 51.087,
      "long": -4.15
    },
    {
      "size": 2,
      "name": "newquai",
      "lat": 50.441,
      "long": -4.995
    },
    {
      "size": 2,
      "name": "lyneham",
      "lat": 51.505,
      "long": -1.993
    },
    {
      "size": 2,
      "name": "boscombe down",
      "lat": 51.152,
      "long": -1.747
    },
    {
      "size": 2,
      "name": "culdrose",
      "lat": 50.086,
      "long": -5.256
    },
    {
      "size": 2,
      "name": "st. athan",
      "lat": 51.405,
      "long": -3.436
    },
    {
      "size": 2,
      "name": "yeovilton",
      "lat": 51.009,
      "long": -2.639
    },
    {
      "size": 2,
      "name": "haverfordwest",
      "lat": 51.833,
      "long": -4.961
    },
    {
      "size": 1,
      "name": "cardiff",
      "lat": 51.397,
      "long": -3.343
    },
    {
      "size": 1,
      "name": "swansea",
      "lat": 51.605,
      "long": -4.068
    },
    {
      "size": 0,
      "name": "bristol",
      "lat": 51.383,
      "long": -2.719
    },
    {
      "size": 0,
      "name": "liverpool",
      "lat": 53.334,
      "long": -2.85
    },
    {
      "size": 1,
      "name": "plymouth",
      "lat": 50.423,
      "long": -4.106
    },
    {
      "size": 1,
      "name": "bournemouth",
      "lat": 50.78,
      "long": -1.843
    },
    {
      "size": 1,
      "name": "southampton",
      "lat": 50.95,
      "long": -1.357
    },
    {
      "size": 2,
      "name": "lasham",
      "lat": 51.185,
      "long": -1.032
    },
    {
      "size": 2,
      "name": "guernsey",
      "lat": 49.435,
      "long": -2.602
    },
    {
      "size": 2,
      "name": "jersey",
      "lat": 49.208,
      "long": -2.195
    },
    {
      "size": 2,
      "name": "shoreham by sea",
      "lat": 50.836,
      "long": -0.297
    },
    {
      "size": 2,
      "name": "biggin hill",
      "lat": 51.331,
      "long": 0.033
    },
    {
      "size": 2,
      "name": "farnborough",
      "lat": 51.276,
      "long": -0.776
    },
    {
      "size": 2,
      "name": "chalsgrove",
      "lat": 51.676,
      "long": -1.081
    },
    {
      "size": 2,
      "name": "blackbushe",
      "lat": 51.324,
      "long": -0.848
    },
    {
      "size": 1,
      "name": "southend",
      "lat": 51.571,
      "long": 0.696
    },
    {
      "size": 2,
      "name": "lydd",
      "lat": 50.956,
      "long": 0.939
    },
    {
      "size": 2,
      "name": "manston",
      "lat": 51.342,
      "long": 1.346
    },
    {
      "size": 2,
      "name": "brough",
      "lat": 53.719,
      "long": -0.566
    },
    {
      "size": 2,
      "name": "carlisle",
      "lat": 54.938,
      "long": -2.809
    },
    {
      "size": 1,
      "name": "blackpool",
      "lat": 53.772,
      "long": -3.029
    },
    {
      "size": 2,
      "name": "humberside",
      "lat": 53.574,
      "long": -0.351
    },
    {
      "size": 2,
      "name": "barrow island",
      "lat": 54.13,
      "long": -3.256
    },
    {
      "size": 2,
      "name": "leeds",
      "lat": 53.866,
      "long": -1.661
    },
    {
      "size": 2,
      "name": "warton",
      "lat": 53.745,
      "long": -2.883
    },
    {
      "size": 2,
      "name": "hawarden",
      "lat": 53.178,
      "long": -2.978
    },
    {
      "size": 2,
      "name": "isle of man",
      "lat": 54.083,
      "long": -4.624
    },
    {
      "size": 1,
      "name": "newcastle",
      "lat": 55.038,
      "long": -1.692
    },
    {
      "size": 1,
      "name": "teesside",
      "lat": 54.509,
      "long": -1.429
    },
    {
      "size": 2,
      "name": "east midlands",
      "lat": 52.831,
      "long": -1.328
    },
    {
      "size": 2,
      "name": "llanbedr",
      "lat": 52.812,
      "long": -4.123
    },
    {
      "size": 2,
      "name": "ternhill",
      "lat": 52.871,
      "long": -2.533
    },
    {
      "size": 2,
      "name": "mona",
      "lat": 53.258,
      "long": -4.373
    },
    {
      "size": 2,
      "name": "shawbury",
      "lat": 52.798,
      "long": -2.668
    },
    {
      "size": 2,
      "name": "valley",
      "lat": 53.248,
      "long": -4.535
    },
    {
      "size": 2,
      "name": "woodvale",
      "lat": 53.581,
      "long": -3.055
    },
    {
      "size": 2,
      "name": "west freugh",
      "lat": 54.851,
      "long": -4.948
    },
    {
      "size": 2,
      "name": "kirkwall",
      "lat": 58.958,
      "long": -2.905
    },
    {
      "size": 2,
      "name": "sumburgh",
      "lat": 59.879,
      "long": -1.296
    },
    {
      "size": 2,
      "name": "wick",
      "lat": 58.459,
      "long": -3.093
    },
    {
      "size": 2,
      "name": "aberdeen",
      "lat": 57.204,
      "long": -2.2
    },
    {
      "size": 2,
      "name": "inverness",
      "lat": 57.54,
      "long": -4.05
    },
    {
      "size": 0,
      "name": "glasgow",
      "lat": 55.872,
      "long": -4.433
    },
    {
      "size": 1,
      "name": "edinburgh",
      "lat": 55.95,
      "long": -3.373
    },
    {
      "size": 2,
      "name": "islay",
      "lat": 55.682,
      "long": -6.257
    },
    {
      "size": 2,
      "name": "prestwick",
      "lat": 55.508,
      "long": -4.587
    },
    {
      "size": 2,
      "name": "benbecula",
      "lat": 57.481,
      "long": -7.363
    },
    {
      "size": 2,
      "name": "scatsta",
      "lat": 60.432,
      "long": -1.298
    },
    {
      "size": 2,
      "name": "dundee",
      "lat": 56.453,
      "long": -3.026
    },
    {
      "size": 2,
      "name": "stornoway",
      "lat": 58.214,
      "long": -6.329
    },
    {
      "size": 2,
      "name": "tiree",
      "lat": 56.499,
      "long": -6.869
    },
    {
      "size": 2,
      "name": "leuchars",
      "lat": 56.373,
      "long": -2.868
    },
    {
      "size": 2,
      "name": "lossiemouth",
      "lat": 57.705,
      "long": -3.339
    },
    {
      "size": 2,
      "name": "bracknell",
      "lat": 51.383,
      "long": -0.783
    },
    {
      "size": 2,
      "name": "cambridge",
      "lat": 52.205,
      "long": 0.175
    },
    {
      "size": 2,
      "name": "norwich",
      "lat": 52.676,
      "long": 1.283
    },
    {
      "size": 2,
      "name": "north weald",
      "lat": 51.722,
      "long": 0.154
    },
    {
      "size": 2,
      "name": "fowlmere",
      "lat": 53.394,
      "long": -1.388
    },
    {
      "size": 2,
      "name": "cranfield",
      "lat": 52.072,
      "long": -0.617
    },
    {
      "size": 2,
      "name": "dunsfold",
      "lat": 51.117,
      "long": -0.534
    },
    {
      "size": 2,
      "name": "exeter",
      "lat": 50.734,
      "long": -3.414
    },
    {
      "size": 2,
      "name": "hatfield",
      "lat": 51.767,
      "long": 0.25
    },
    {
      "size": 2,
      "name": "oxford",
      "lat": 51.837,
      "long": -1.32
    },
    {
      "size": 2,
      "name": "benson",
      "lat": 51.616,
      "long": -1.096
    },
    {
      "size": 2,
      "name": "lakenheath",
      "lat": 52.409,
      "long": 0.561
    },
    {
      "size": 2,
      "name": "mildenhall",
      "lat": 52.361,
      "long": 0.488
    },
    {
      "size": 2,
      "name": "wattisham",
      "lat": 52.127,
      "long": 0.956
    },
    {
      "size": 2,
      "name": "wyton",
      "lat": 52.357,
      "long": -0.108
    },
    {
      "size": 2,
      "name": "fairford",
      "lat": 51.682,
      "long": -1.79
    },
    {
      "size": 2,
      "name": "brize norton",
      "lat": 51.75,
      "long": -1.584
    },
    {
      "size": 2,
      "name": "odiham",
      "lat": 51.234,
      "long": -0.943
    },
    {
      "size": 2,
      "name": "cosford",
      "lat": 52.64,
      "long": -2.306
    },
    {
      "size": 2,
      "name": "northolt",
      "lat": 51.553,
      "long": -0.418
    },
    {
      "size": 2,
      "name": "coningsby",
      "lat": 53.093,
      "long": -0.166
    },
    {
      "size": 2,
      "name": "dishforth",
      "lat": 54.137,
      "long": -1.42
    },
    {
      "size": 2,
      "name": "leeming",
      "lat": 54.292,
      "long": -1.535
    },
    {
      "size": 2,
      "name": "church fenton",
      "lat": 53.834,
      "long": -1.195
    },
    {
      "size": 2,
      "name": "honington",
      "lat": 52.343,
      "long": 0.773
    },
    {
      "size": 2,
      "name": "cottesmore",
      "lat": 52.736,
      "long": -0.649
    },
    {
      "size": 2,
      "name": "scampton",
      "lat": 53.307,
      "long": -0.551
    },
    {
      "size": 2,
      "name": "wittering",
      "lat": 52.613,
      "long": -0.476
    },
    {
      "size": 2,
      "name": "linton-on-ouse",
      "lat": 54.049,
      "long": -1.252
    },
    {
      "size": 2,
      "name": "waddington",
      "lat": 53.166,
      "long": -0.524
    },
    {
      "size": 2,
      "name": "topcliffe",
      "lat": 54.206,
      "long": -1.382
    },
    {
      "size": 2,
      "name": "coltishall",
      "lat": 52.755,
      "long": 1.357
    },
    {
      "size": 2,
      "name": "cranwell",
      "lat": 53.031,
      "long": -0.481
    },
    {
      "size": 2,
      "name": "barkston heath",
      "lat": 52.962,
      "long": -0.561
    },
    {
      "size": 2,
      "name": "marham",
      "lat": 52.648,
      "long": 0.55
    },
    {
      "size": 2,
      "name": "mount pleasant",
      "lat": -51.823,
      "long": -58.447
    },
    {
      "size": 0,
      "name": "amsterdam",
      "lat": 52.309,
      "long": 4.764
    },
    {
      "size": 2,
      "name": "weert",
      "lat": 51.255,
      "long": 5.601
    },
    {
      "size": 2,
      "name": "maastricht",
      "lat": 50.911,
      "long": 5.77
    },
    {
      "size": 2,
      "name": "deelen",
      "lat": 52.061,
      "long": 5.873
    },
    {
      "size": 2,
      "name": "drachten",
      "lat": 53.119,
      "long": 6.13
    },
    {
      "size": 1,
      "name": "eindhoven",
      "lat": 51.45,
      "long": 5.374
    },
    {
      "size": 2,
      "name": "groningen",
      "lat": 53.119,
      "long": 6.579
    },
    {
      "size": 2,
      "name": "gilze-rijen",
      "lat": 51.568,
      "long": 4.933
    },
    {
      "size": 2,
      "name": "de kooy",
      "lat": 52.923,
      "long": 4.781
    },
    {
      "size": 2,
      "name": "lelystad",
      "lat": 52.46,
      "long": 5.527
    },
    {
      "size": 2,
      "name": "leeuwarden",
      "lat": 53.229,
      "long": 5.761
    },
    {
      "size": 0,
      "name": "rotterdam",
      "lat": 51.957,
      "long": 4.442
    },
    {
      "size": 2,
      "name": "soesterberg",
      "lat": 52.127,
      "long": 5.276
    },
    {
      "size": 2,
      "name": "enschede",
      "lat": 52.27,
      "long": 6.874
    },
    {
      "size": 2,
      "name": "valkenburg",
      "lat": 52.17,
      "long": 4.426
    },
    {
      "size": 2,
      "name": "woensdrecht",
      "lat": 51.449,
      "long": 4.342
    },
    {
      "size": 2,
      "name": "cork",
      "lat": 51.843,
      "long": -8.492
    },
    {
      "size": 2,
      "name": "galway",
      "lat": 53.301,
      "long": -8.939
    },
    {
      "size": 2,
      "name": "donegal",
      "lat": 55.044,
      "long": -8.341
    },
    {
      "size": 0,
      "name": "dublin",
      "lat": 53.421,
      "long": -6.27
    },
    {
      "size": 2,
      "name": "connaught",
      "lat": 53.91,
      "long": -8.818
    },
    {
      "size": 2,
      "name": "kerry",
      "lat": 52.181,
      "long": -9.524
    },
    {
      "size": 2,
      "name": "casement",
      "lat": 53.303,
      "long": -6.443
    },
    {
      "size": 2,
      "name": "shannon",
      "lat": 52.702,
      "long": -8.925
    },
    {
      "size": 2,
      "name": "sligo",
      "lat": 54.28,
      "long": -8.599
    },
    {
      "size": 2,
      "name": "waterford",
      "lat": 52.187,
      "long": -7.087
    },
    {
      "size": 2,
      "name": "aarhus",
      "lat": 56.304,
      "long": 10.619
    },
    {
      "size": 2,
      "name": "billund",
      "lat": 55.74,
      "long": 9.152
    },
    {
      "size": 1,
      "name": "copenhagen",
      "lat": 55.618,
      "long": 12.656
    },
    {
      "size": 2,
      "name": "esbjerg",
      "lat": 55.526,
      "long": 8.553
    },
    {
      "size": 2,
      "name": "gronholt",
      "lat": 55.941,
      "long": 12.382
    },
    {
      "size": 2,
      "name": "lindtorp",
      "lat": 56.397,
      "long": 8.443
    },
    {
      "size": 2,
      "name": "karup",
      "lat": 56.297,
      "long": 9.124
    },
    {
      "size": 2,
      "name": "laeso",
      "lat": 57.278,
      "long": 11.001
    },
    {
      "size": 2,
      "name": "maribo",
      "lat": 54.699,
      "long": 11.44
    },
    {
      "size": 2,
      "name": "odense",
      "lat": 55.476,
      "long": 10.329
    },
    {
      "size": 2,
      "name": "krusa-padborg",
      "lat": 54.87,
      "long": 9.279
    },
    {
      "size": 2,
      "name": "ronne",
      "lat": 55.063,
      "long": 14.759
    },
    {
      "size": 2,
      "name": "soenderborg",
      "lat": 54.964,
      "long": 9.792
    },
    {
      "size": 2,
      "name": "sindal",
      "lat": 57.503,
      "long": 10.229
    },
    {
      "size": 2,
      "name": "skrydstrup",
      "lat": 55.225,
      "long": 9.264
    },
    {
      "size": 2,
      "name": "skive",
      "lat": 56.55,
      "long": 9.173
    },
    {
      "size": 2,
      "name": "thisted",
      "lat": 57.069,
      "long": 8.705
    },
    {
      "size": 2,
      "name": "vandel",
      "lat": 55.697,
      "long": 9.193
    },
    {
      "size": 2,
      "name": "kolding",
      "lat": 55.436,
      "long": 9.331
    },
    {
      "size": 2,
      "name": "vagar",
      "lat": 62.064,
      "long": -7.277
    },
    {
      "size": 2,
      "name": "vesthimmerland",
      "lat": 56.847,
      "long": 9.459
    },
    {
      "size": 2,
      "name": "stauning",
      "lat": 55.99,
      "long": 8.354
    },
    {
      "size": 2,
      "name": "vaerlose",
      "lat": 55.767,
      "long": 12.343
    },
    {
      "size": 2,
      "name": "aalborg",
      "lat": 57.093,
      "long": 9.849
    },
    {
      "size": 2,
      "name": "luxemburg",
      "lat": 49.626,
      "long": 6.211
    },
    {
      "size": 2,
      "name": "alesund",
      "lat": 62.56,
      "long": 6.11
    },
    {
      "size": 2,
      "name": "andoya",
      "lat": 69.293,
      "long": 16.144
    },
    {
      "size": 2,
      "name": "alta",
      "lat": 69.977,
      "long": 23.366
    },
    {
      "size": 2,
      "name": "forde",
      "lat": 61.392,
      "long": 5.764
    },
    {
      "size": 2,
      "name": "bomoen",
      "lat": 60.639,
      "long": 6.501
    },
    {
      "size": 2,
      "name": "bronnoysund",
      "lat": 65.459,
      "long": 12.214
    },
    {
      "size": 2,
      "name": "bodoe",
      "lat": 67.269,
      "long": 14.363
    },
    {
      "size": 1,
      "name": "bergen",
      "lat": 60.293,
      "long": 5.218
    },
    {
      "size": 2,
      "name": "batsfjord",
      "lat": 70.6,
      "long": 29.692
    },
    {
      "size": 2,
      "name": "kristiansand",
      "lat": 58.204,
      "long": 8.085
    },
    {
      "size": 2,
      "name": "dagli",
      "lat": 60.417,
      "long": 8.514
    },
    {
      "size": 2,
      "name": "bardufoss",
      "lat": 69.056,
      "long": 18.54
    },
    {
      "size": 2,
      "name": "evenes",
      "lat": 68.491,
      "long": 16.678
    },
    {
      "size": 0,
      "name": "oslo",
      "lat": 59.896,
      "long": 10.617
    },
    {
      "size": 2,
      "name": "fagernes",
      "lat": 61.011,
      "long": 9.293
    },
    {
      "size": 2,
      "name": "floro",
      "lat": 61.584,
      "long": 5.025
    },
    {
      "size": 2,
      "name": "hamar",
      "lat": 60.818,
      "long": 11.067
    },
    {
      "size": 2,
      "name": "haugesund",
      "lat": 59.345,
      "long": 5.208
    },
    {
      "size": 2,
      "name": "hasvik",
      "lat": 70.487,
      "long": 22.14
    },
    {
      "size": 2,
      "name": "kristiansund",
      "lat": 63.112,
      "long": 7.824
    },
    {
      "size": 2,
      "name": "kjeller",
      "lat": 59.969,
      "long": 11.036
    },
    {
      "size": 2,
      "name": "kirkenes",
      "lat": 69.725,
      "long": 29.887
    },
    {
      "size": 2,
      "name": "lista",
      "lat": 58.1,
      "long": 6.625
    },
    {
      "size": 2,
      "name": "molde",
      "lat": 62.746,
      "long": 7.272
    },
    {
      "size": 2,
      "name": "mosjoen",
      "lat": 65.784,
      "long": 13.215
    },
    {
      "size": 2,
      "name": "banak",
      "lat": 70.069,
      "long": 24.973
    },
    {
      "size": 2,
      "name": "notodden",
      "lat": 59.566,
      "long": 9.212
    },
    {
      "size": 2,
      "name": "orland",
      "lat": 63.699,
      "long": 9.604
    },
    {
      "size": 2,
      "name": "roros",
      "lat": 62.578,
      "long": 11.342
    },
    {
      "size": 2,
      "name": "rygge",
      "lat": 59.379,
      "long": 10.786
    },
    {
      "size": 2,
      "name": "svalbard",
      "lat": 78.246,
      "long": 15.466
    },
    {
      "size": 2,
      "name": "sogndal",
      "lat": 61.156,
      "long": 7.136
    },
    {
      "size": 2,
      "name": "skien",
      "lat": 59.185,
      "long": 9.567
    },
    {
      "size": 2,
      "name": "stord",
      "lat": 59.792,
      "long": 5.341
    },
    {
      "size": 2,
      "name": "sorkjosen",
      "lat": 69.787,
      "long": 20.959
    },
    {
      "size": 2,
      "name": "svartnes",
      "lat": 70.355,
      "long": 31.045
    },
    {
      "size": 2,
      "name": "sandnessjoen",
      "lat": 65.957,
      "long": 12.469
    },
    {
      "size": 2,
      "name": "tromso",
      "lat": 69.683,
      "long": 18.919
    },
    {
      "size": 2,
      "name": "torp",
      "lat": 59.187,
      "long": 10.259
    },
    {
      "size": 2,
      "name": "trondheim",
      "lat": 63.458,
      "long": 10.94
    },
    {
      "size": 2,
      "name": "stavanger",
      "lat": 58.877,
      "long": 5.638
    },
    {
      "size": 1,
      "name": "gdansk",
      "lat": 54.377,
      "long": 18.466
    },
    {
      "size": 2,
      "name": "krakow",
      "lat": 50.078,
      "long": 19.785
    },
    {
      "size": 0,
      "name": "katowice",
      "lat": 50.238,
      "long": 19.035
    },
    {
      "size": 2,
      "name": "koszalin",
      "lat": 54.042,
      "long": 16.264
    },
    {
      "size": 2,
      "name": "lodz",
      "lat": 51.722,
      "long": 19.398
    },
    {
      "size": 2,
      "name": "mielec",
      "lat": 50.322,
      "long": 21.462
    },
    {
      "size": 0,
      "name": "poznan",
      "lat": 52.421,
      "long": 16.826
    },
    {
      "size": 2,
      "name": "rzeszow",
      "lat": 50.11,
      "long": 22.019
    },
    {
      "size": 2,
      "name": "szczechin",
      "lat": 53.585,
      "long": 14.902
    },
    {
      "size": 2,
      "name": "slupsk",
      "lat": 54.479,
      "long": 17.108
    },
    {
      "size": 2,
      "name": "shapaja",
      "lat": 53.791,
      "long": 15.828
    },
    {
      "size": 0,
      "name": "warsaw",
      "lat": 52.166,
      "long": 20.967
    },
    {
      "size": 0,
      "name": "wroclaw",
      "lat": 51.102,
      "long": 16.886
    },
    {
      "size": 2,
      "name": "zielona gora",
      "lat": 52.139,
      "long": 15.799
    },
    {
      "size": 2,
      "name": "linkoeping",
      "lat": 58.402,
      "long": 15.526
    },
    {
      "size": 2,
      "name": "norrkoeping",
      "lat": 58.611,
      "long": 16.103
    },
    {
      "size": 2,
      "name": "uppsala",
      "lat": 59.897,
      "long": 17.588
    },
    {
      "size": 0,
      "name": "stockholm",
      "lat": 59.181,
      "long": 17.912
    },
    {
      "size": 2,
      "name": "angelholm",
      "lat": 56.296,
      "long": 12.847
    },
    {
      "size": 2,
      "name": "ronneby",
      "lat": 56.267,
      "long": 15.265
    },
    {
      "size": 2,
      "name": "hasslosa",
      "lat": 58.409,
      "long": 13.262
    },
    {
      "size": 2,
      "name": "knislinge",
      "lat": 56.184,
      "long": 14.132
    },
    {
      "size": 2,
      "name": "moholm",
      "lat": 58.598,
      "long": 14.114
    },
    {
      "size": 2,
      "name": "kosta",
      "lat": 56.844,
      "long": 15.452
    },
    {
      "size": 2,
      "name": "rada",
      "lat": 58.498,
      "long": 13.053
    },
    {
      "size": 2,
      "name": "byholma",
      "lat": 56.785,
      "long": 13.602
    },
    {
      "size": 2,
      "name": "gothenborg",
      "lat": 57.663,
      "long": 12.28
    },
    {
      "size": 2,
      "name": "joenkoeping",
      "lat": 57.758,
      "long": 14.069
    },
    {
      "size": 2,
      "name": "falkoping",
      "lat": 58.17,
      "long": 13.588
    },
    {
      "size": 2,
      "name": "lidkoping",
      "lat": 58.465,
      "long": 13.174
    },
    {
      "size": 2,
      "name": "skovde",
      "lat": 58.456,
      "long": 13.973
    },
    {
      "size": 2,
      "name": "trollhattan",
      "lat": 58.318,
      "long": 12.345
    },
    {
      "size": 2,
      "name": "karlsborg",
      "lat": 58.514,
      "long": 14.507
    },
    {
      "size": 2,
      "name": "satenas",
      "lat": 58.426,
      "long": 12.714
    },
    {
      "size": 2,
      "name": "gimo",
      "lat": 60.133,
      "long": 18.105
    },
    {
      "size": 2,
      "name": "karlskoga",
      "lat": 59.346,
      "long": 14.496
    },
    {
      "size": 2,
      "name": "mora",
      "lat": 60.958,
      "long": 14.511
    },
    {
      "size": 2,
      "name": "strangnas",
      "lat": 59.314,
      "long": 17.109
    },
    {
      "size": 2,
      "name": "arvika",
      "lat": 59.676,
      "long": 12.639
    },
    {
      "size": 2,
      "name": "bjorkvik",
      "lat": 58.791,
      "long": 16.571
    },
    {
      "size": 2,
      "name": "emmaboda",
      "lat": 56.611,
      "long": 15.605
    },
    {
      "size": 2,
      "name": "ljungby",
      "lat": 56.95,
      "long": 13.922
    },
    {
      "size": 2,
      "name": "kristianstad",
      "lat": 55.922,
      "long": 14.085
    },
    {
      "size": 2,
      "name": "landskrona",
      "lat": 55.945,
      "long": 12.861
    },
    {
      "size": 2,
      "name": "oskarshamn",
      "lat": 57.35,
      "long": 16.498
    },
    {
      "size": 2,
      "name": "anderstorp",
      "lat": 57.264,
      "long": 13.599
    },
    {
      "size": 2,
      "name": "kalkmar",
      "lat": 56.685,
      "long": 16.288
    },
    {
      "size": 2,
      "name": "malmoe",
      "lat": 55.53,
      "long": 13.371
    },
    {
      "size": 2,
      "name": "halmstad",
      "lat": 56.691,
      "long": 12.82
    },
    {
      "size": 2,
      "name": "hagshult",
      "lat": 57.292,
      "long": 14.137
    },
    {
      "size": 2,
      "name": "vaxjo",
      "lat": 56.929,
      "long": 14.728
    },
    {
      "size": 2,
      "name": "hallviken",
      "lat": 63.738,
      "long": 15.458
    },
    {
      "size": 2,
      "name": "hede",
      "lat": 62.409,
      "long": 13.747
    },
    {
      "size": 2,
      "name": "sveg",
      "lat": 62.048,
      "long": 14.423
    },
    {
      "size": 2,
      "name": "farila",
      "lat": 61.898,
      "long": 15.705
    },
    {
      "size": 2,
      "name": "gallivare",
      "lat": 67.132,
      "long": 20.814
    },
    {
      "size": 2,
      "name": "hudiksvall",
      "lat": 61.768,
      "long": 17.081
    },
    {
      "size": 2,
      "name": "kubbe",
      "lat": 63.634,
      "long": 17.94
    },
    {
      "size": 2,
      "name": "jokkmokk",
      "lat": 66.496,
      "long": 20.147
    },
    {
      "size": 2,
      "name": "kramfors",
      "lat": 63.048,
      "long": 17.769
    },
    {
      "size": 2,
      "name": "lycksele",
      "lat": 64.548,
      "long": 18.716
    },
    {
      "size": 2,
      "name": "optand",
      "lat": 63.129,
      "long": 14.803
    },
    {
      "size": 2,
      "name": "sundsvall",
      "lat": 62.528,
      "long": 17.444
    },
    {
      "size": 2,
      "name": "ornskoldsvik",
      "lat": 63.408,
      "long": 18.99
    },
    {
      "size": 2,
      "name": "pitea",
      "lat": 65.399,
      "long": 21.265
    },
    {
      "size": 2,
      "name": "kiruna",
      "lat": 67.822,
      "long": 20.337
    },
    {
      "size": 2,
      "name": "orsa",
      "lat": 61.19,
      "long": 14.712
    },
    {
      "size": 2,
      "name": "skelleftea",
      "lat": 64.625,
      "long": 21.077
    },
    {
      "size": 2,
      "name": "sattna",
      "lat": 62.481,
      "long": 17.003
    },
    {
      "size": 2,
      "name": "umea",
      "lat": 63.792,
      "long": 20.282
    },
    {
      "size": 2,
      "name": "vilhelmina",
      "lat": 64.579,
      "long": 16.833
    },
    {
      "size": 2,
      "name": "arvidsjaur",
      "lat": 65.59,
      "long": 19.282
    },
    {
      "size": 2,
      "name": "orebro",
      "lat": 59.224,
      "long": 15.038
    },
    {
      "size": 2,
      "name": "hagfors",
      "lat": 60.02,
      "long": 13.579
    },
    {
      "size": 2,
      "name": "vasteras",
      "lat": 59.589,
      "long": 16.634
    },
    {
      "size": 2,
      "name": "lulea",
      "lat": 65.544,
      "long": 22.122
    },
    {
      "size": 2,
      "name": "ostersund",
      "lat": 63.194,
      "long": 14.502
    },
    {
      "size": 2,
      "name": "vidsel",
      "lat": 65.875,
      "long": 20.15
    },
    {
      "size": 2,
      "name": "heden",
      "lat": 65.836,
      "long": 21.471
    },
    {
      "size": 2,
      "name": "arboga",
      "lat": 59.386,
      "long": 15.924
    },
    {
      "size": 2,
      "name": "borlange",
      "lat": 60.422,
      "long": 15.515
    },
    {
      "size": 2,
      "name": "hultsfred",
      "lat": 57.526,
      "long": 15.824
    },
    {
      "size": 2,
      "name": "gavle",
      "lat": 60.593,
      "long": 16.951
    },
    {
      "size": 2,
      "name": "torsby",
      "lat": 60.157,
      "long": 12.991
    },
    {
      "size": 2,
      "name": "eskilstuna",
      "lat": 59.351,
      "long": 16.708
    },
    {
      "size": 2,
      "name": "visby",
      "lat": 57.663,
      "long": 18.346
    },
    {
      "size": 2,
      "name": "amsele",
      "lat": 64.571,
      "long": 19.314
    },
    {
      "size": 2,
      "name": "mohed",
      "lat": 64.961,
      "long": 17.696
    },
    {
      "size": 2,
      "name": "idre",
      "lat": 61.869,
      "long": 12.691
    },
    {
      "size": 2,
      "name": "fallfors",
      "lat": 65.106,
      "long": 20.761
    },
    {
      "size": 2,
      "name": "kalixfors",
      "lat": 67.765,
      "long": 20.257
    },
    {
      "size": 2,
      "name": "hemavan",
      "lat": 65.806,
      "long": 15.083
    },
    {
      "size": 2,
      "name": "spangdahlem",
      "lat": 49.973,
      "long": 6.692
    },
    {
      "size": 2,
      "name": "ramstein",
      "lat": 49.438,
      "long": 7.601
    },
    {
      "size": 2,
      "name": "bamberg",
      "lat": 49.92,
      "long": 10.914
    },
    {
      "size": 2,
      "name": "baumholder",
      "lat": 49.65,
      "long": 7.3
    },
    {
      "size": 2,
      "name": "giebelstadt",
      "lat": 49.648,
      "long": 9.966
    },
    {
      "size": 2,
      "name": "brueckeburg",
      "lat": 52.278,
      "long": 9.082
    },
    {
      "size": 2,
      "name": "celle",
      "lat": 52.591,
      "long": 10.022
    },
    {
      "size": 2,
      "name": "rheine-brentlange",
      "lat": 52.291,
      "long": 7.387
    },
    {
      "size": 2,
      "name": "fritzlar",
      "lat": 51.114,
      "long": 9.286
    },
    {
      "size": 2,
      "name": "itzehoe",
      "lat": 53.994,
      "long": 9.578
    },
    {
      "size": 2,
      "name": "laupheim",
      "lat": 48.22,
      "long": 9.91
    },
    {
      "size": 2,
      "name": "mendig",
      "lat": 50.366,
      "long": 7.315
    },
    {
      "size": 2,
      "name": "niederstetten",
      "lat": 49.392,
      "long": 9.958
    },
    {
      "size": 2,
      "name": "roth",
      "lat": 49.218,
      "long": 11.101
    },
    {
      "size": 2,
      "name": "fassberg",
      "lat": 52.919,
      "long": 10.184
    },
    {
      "size": 2,
      "name": "grafenwoehr",
      "lat": 49.699,
      "long": 11.941
    },
    {
      "size": 2,
      "name": "hanau",
      "lat": 50.169,
      "long": 8.961
    },
    {
      "size": 2,
      "name": "heidelberg",
      "lat": 49.393,
      "long": 8.652
    },
    {
      "size": 2,
      "name": "hohenfels",
      "lat": 49.218,
      "long": 11.836
    },
    {
      "size": 2,
      "name": "kitzingen",
      "lat": 49.743,
      "long": 10.201
    },
    {
      "size": 2,
      "name": "eggebeck",
      "lat": 54.625,
      "long": 9.341
    },
    {
      "size": 2,
      "name": "nordholz",
      "lat": 53.767,
      "long": 8.658
    },
    {
      "size": 2,
      "name": "diepholz",
      "lat": 52.585,
      "long": 8.341
    },
    {
      "size": 2,
      "name": "geilenkirchen",
      "lat": 50.961,
      "long": 6.042
    },
    {
      "size": 2,
      "name": "hohn",
      "lat": 54.312,
      "long": 9.538
    },
    {
      "size": 2,
      "name": "jever",
      "lat": 53.533,
      "long": 7.889
    },
    {
      "size": 2,
      "name": "laage",
      "lat": 53.918,
      "long": 12.279
    },
    {
      "size": 2,
      "name": "noervenich",
      "lat": 50.831,
      "long": 6.658
    },
    {
      "size": 2,
      "name": "hopsten",
      "lat": 52.339,
      "long": 7.541
    },
    {
      "size": 2,
      "name": "preschen",
      "lat": 51.664,
      "long": 14.634
    },
    {
      "size": 2,
      "name": "schleswig",
      "lat": 54.459,
      "long": 9.516
    },
    {
      "size": 2,
      "name": "wittmundhafen",
      "lat": 53.548,
      "long": 7.667
    },
    {
      "size": 2,
      "name": "wunstorf",
      "lat": 52.457,
      "long": 9.427
    },
    {
      "size": 2,
      "name": "vilseck",
      "lat": 49.634,
      "long": 11.767
    },
    {
      "size": 2,
      "name": "coleman",
      "lat": 49.563,
      "long": 8.463
    },
    {
      "size": 1,
      "name": "wiesbaden",
      "lat": 50.05,
      "long": 8.325
    },
    {
      "size": 2,
      "name": "landsberg",
      "lat": 48.071,
      "long": 10.906
    },
    {
      "size": 2,
      "name": "buechel",
      "lat": 50.174,
      "long": 7.063
    },
    {
      "size": 2,
      "name": "erding",
      "lat": 48.322,
      "long": 11.949
    },
    {
      "size": 2,
      "name": "fuerstenfeldbruck",
      "lat": 48.206,
      "long": 11.267
    },
    {
      "size": 2,
      "name": "holzdorf",
      "lat": 51.768,
      "long": 13.167
    },
    {
      "size": 2,
      "name": "ingolstadt",
      "lat": 48.716,
      "long": 11.534
    },
    {
      "size": 2,
      "name": "lechfeld",
      "lat": 48.186,
      "long": 10.862
    },
    {
      "size": 2,
      "name": "memmingen",
      "lat": 47.989,
      "long": 10.239
    },
    {
      "size": 2,
      "name": "neuburg",
      "lat": 48.711,
      "long": 11.211
    },
    {
      "size": 2,
      "name": "laarbruch",
      "lat": 51.602,
      "long": 6.143
    },
    {
      "size": 2,
      "name": "guetersloh",
      "lat": 51.923,
      "long": 8.306
    },
    {
      "size": 2,
      "name": "brueggen",
      "lat": 51.2,
      "long": 6.132
    },
    {
      "size": 2,
      "name": "alexander bay",
      "lat": -28.575,
      "long": 16.533
    },
    {
      "size": 2,
      "name": "aggeneys",
      "lat": -29.282,
      "long": 18.814
    },
    {
      "size": 2,
      "name": "arnot power station",
      "lat": -25.944,
      "long": 29.81
    },
    {
      "size": 2,
      "name": "brakpan",
      "lat": -26.239,
      "long": 28.302
    },
    {
      "size": 2,
      "name": "bisho",
      "lat": -32.897,
      "long": 27.279
    },
    {
      "size": 1,
      "name": "bloemfontein",
      "lat": -29.092,
      "long": 26.302
    },
    {
      "size": 2,
      "name": "bethlehem",
      "lat": -28.248,
      "long": 28.336
    },
    {
      "size": 2,
      "name": "bothaville",
      "lat": -27.367,
      "long": 26.629
    },
    {
      "size": 2,
      "name": "carletonville",
      "lat": -26.369,
      "long": 27.35
    },
    {
      "size": 0,
      "name": "cape town",
      "lat": -33.965,
      "long": 18.602
    },
    {
      "size": 2,
      "name": "calvinia",
      "lat": -31.5,
      "long": 19.726
    },
    {
      "size": 2,
      "name": "de aar",
      "lat": -30.637,
      "long": 23.92
    },
    {
      "size": 2,
      "name": "dwaalboom",
      "lat": -24.805,
      "long": 26.832
    },
    {
      "size": 0,
      "name": "durban",
      "lat": -29.97,
      "long": 30.95
    },
    {
      "size": 2,
      "name": "east london",
      "lat": -33.036,
      "long": 27.826
    },
    {
      "size": 2,
      "name": "ermelo",
      "lat": -26.495,
      "long": 29.98
    },
    {
      "size": 2,
      "name": "ellisras",
      "lat": -23.726,
      "long": 27.688
    },
    {
      "size": 2,
      "name": "ficksburg",
      "lat": -28.823,
      "long": 27.909
    },
    {
      "size": 0,
      "name": "johannesburg",
      "lat": -25.986,
      "long": 28.14
    },
    {
      "size": 2,
      "name": "george",
      "lat": -34.005,
      "long": 22.379
    },
    {
      "size": 2,
      "name": "giyani",
      "lat": -23.284,
      "long": 30.65
    },
    {
      "size": 2,
      "name": "grahamstown",
      "lat": -33.285,
      "long": 26.498
    },
    {
      "size": 2,
      "name": "greytown",
      "lat": -29.122,
      "long": 30.587
    },
    {
      "size": 2,
      "name": "harmony",
      "lat": -28.079,
      "long": 26.861
    },
    {
      "size": 2,
      "name": "pullenshope",
      "lat": -25.979,
      "long": 29.619
    },
    {
      "size": 2,
      "name": "heibron",
      "lat": -27.278,
      "long": 27.996
    },
    {
      "size": 2,
      "name": "harrismith",
      "lat": -28.235,
      "long": 29.106
    },
    {
      "size": 2,
      "name": "hoedspruit",
      "lat": -24.369,
      "long": 31.049
    },
    {
      "size": 2,
      "name": "hendrik verwoerddam",
      "lat": -30.562,
      "long": 25.528
    },
    {
      "size": 2,
      "name": "klerksdorp",
      "lat": -26.871,
      "long": 26.718
    },
    {
      "size": 2,
      "name": "komati power station",
      "lat": -26.093,
      "long": 29.455
    },
    {
      "size": 2,
      "name": "kriel",
      "lat": -26.252,
      "long": 29.194
    },
    {
      "size": 2,
      "name": "kimberley",
      "lat": -28.803,
      "long": 24.765
    },
    {
      "size": 2,
      "name": "komatipoort",
      "lat": -25.441,
      "long": 31.93
    },
    {
      "size": 2,
      "name": "krugersdorp",
      "lat": -26.081,
      "long": 27.726
    },
    {
      "size": 2,
      "name": "kroonstad",
      "lat": -27.661,
      "long": 27.316
    },
    {
      "size": 2,
      "name": "kuruman",
      "lat": -27.457,
      "long": 23.411
    },
    {
      "size": 2,
      "name": "kleinsee",
      "lat": -29.688,
      "long": 17.094
    },
    {
      "size": 2,
      "name": "ladybrand",
      "lat": -29.181,
      "long": 27.453
    },
    {
      "size": 2,
      "name": "lichtenburg",
      "lat": -26.176,
      "long": 26.184
    },
    {
      "size": 2,
      "name": "louis trichardt",
      "lat": -23.16,
      "long": 29.696
    },
    {
      "size": 2,
      "name": "langebaanweg",
      "lat": -32.969,
      "long": 18.16
    },
    {
      "size": 2,
      "name": "ladysmith",
      "lat": -28.582,
      "long": 29.75
    },
    {
      "size": 2,
      "name": "middelburg",
      "lat": -25.685,
      "long": 29.44
    },
    {
      "size": 2,
      "name": "margate",
      "lat": -30.857,
      "long": 30.343
    },
    {
      "size": 2,
      "name": "marble hall",
      "lat": -24.989,
      "long": 29.283
    },
    {
      "size": 2,
      "name": "majuba power station",
      "lat": -27.079,
      "long": 29.778
    },
    {
      "size": 2,
      "name": "mafikeng",
      "lat": -25.753,
      "long": 25.612
    },
    {
      "size": 2,
      "name": "mmabatho",
      "lat": -25.798,
      "long": 25.548
    },
    {
      "size": 2,
      "name": "malalane",
      "lat": -25.473,
      "long": 31.566
    },
    {
      "size": 1,
      "name": "messina",
      "lat": -22.356,
      "long": 29.986
    },
    {
      "size": 2,
      "name": "mkuze",
      "lat": -27.626,
      "long": 32.044
    },
    {
      "size": 2,
      "name": "nelspruit",
      "lat": -25.501,
      "long": 30.913
    },
    {
      "size": 2,
      "name": "nylstroom",
      "lat": -24.686,
      "long": 28.435
    },
    {
      "size": 2,
      "name": "overberg",
      "lat": -34.555,
      "long": 20.25
    },
    {
      "size": 2,
      "name": "oudtshoorn",
      "lat": -33.607,
      "long": 22.189
    },
    {
      "size": 2,
      "name": "pietersburg",
      "lat": -23.845,
      "long": 29.459
    },
    {
      "size": 0,
      "name": "port elizabeth",
      "lat": -33.985,
      "long": 25.617
    },
    {
      "size": 2,
      "name": "plettenberg bay",
      "lat": -34.09,
      "long": 23.328
    },
    {
      "size": 2,
      "name": "phalaborwa",
      "lat": -23.937,
      "long": 31.155
    },
    {
      "size": 2,
      "name": "port saint johns",
      "lat": -31.606,
      "long": 29.52
    },
    {
      "size": 1,
      "name": "pietermaritzburg",
      "lat": -29.649,
      "long": 30.399
    },
    {
      "size": 2,
      "name": "pilanesberg",
      "lat": -25.334,
      "long": 27.173
    },
    {
      "size": 2,
      "name": "potgietersrus",
      "lat": -24.23,
      "long": 28.984
    },
    {
      "size": 2,
      "name": "pomfret",
      "lat": -25.847,
      "long": 23.538
    },
    {
      "size": 2,
      "name": "potchefstroom",
      "lat": -26.671,
      "long": 27.082
    },
    {
      "size": 2,
      "name": "parys",
      "lat": -26.889,
      "long": 27.503
    },
    {
      "size": 2,
      "name": "queenstown",
      "lat": -31.92,
      "long": 26.882
    },
    {
      "size": 2,
      "name": "richard's bay",
      "lat": -28.741,
      "long": 32.092
    },
    {
      "size": 2,
      "name": "rustenburg",
      "lat": -25.644,
      "long": 27.271
    },
    {
      "size": 2,
      "name": "robertson",
      "lat": -33.812,
      "long": 19.903
    },
    {
      "size": 2,
      "name": "springbok",
      "lat": -29.689,
      "long": 17.939
    },
    {
      "size": 2,
      "name": "secunda",
      "lat": -26.524,
      "long": 29.17
    },
    {
      "size": 2,
      "name": "saldanha",
      "lat": -32.964,
      "long": 17.969
    },
    {
      "size": 2,
      "name": "springs",
      "lat": -26.248,
      "long": 28.398
    },
    {
      "size": 2,
      "name": "swartkop",
      "lat": -25.809,
      "long": 28.164
    },
    {
      "size": 2,
      "name": "sishen",
      "lat": -27.648,
      "long": 22.999
    },
    {
      "size": 2,
      "name": "sace",
      "lat": -25.961,
      "long": 29.209
    },
    {
      "size": 2,
      "name": "skukuza",
      "lat": -24.961,
      "long": 31.589
    },
    {
      "size": 2,
      "name": "tommy's field",
      "lat": -28.26,
      "long": 22.993
    },
    {
      "size": 2,
      "name": "thohoyandou",
      "lat": -23.079,
      "long": 30.383
    },
    {
      "size": 2,
      "name": "thaba nchu",
      "lat": -29.319,
      "long": 26.823
    },
    {
      "size": 2,
      "name": "tutuka",
      "lat": -26.776,
      "long": 29.339
    },
    {
      "size": 2,
      "name": "tzaneen",
      "lat": -23.824,
      "long": 30.329
    },
    {
      "size": 2,
      "name": "ulundi",
      "lat": -28.321,
      "long": 31.416
    },
    {
      "size": 2,
      "name": "upington",
      "lat": -28.401,
      "long": 21.261
    },
    {
      "size": 2,
      "name": "umtata",
      "lat": -31.548,
      "long": 28.674
    },
    {
      "size": 2,
      "name": "vryburg",
      "lat": -26.982,
      "long": 24.729
    },
    {
      "size": 2,
      "name": "vanderbijlpark",
      "lat": -26.692,
      "long": 27.778
    },
    {
      "size": 2,
      "name": "vredendal",
      "lat": -31.641,
      "long": 18.545
    },
    {
      "size": 1,
      "name": "vereeniging",
      "lat": -26.566,
      "long": 27.961
    },
    {
      "size": 2,
      "name": "vryheid",
      "lat": -27.787,
      "long": 30.795
    },
    {
      "size": 0,
      "name": "pretoria",
      "lat": -25.654,
      "long": 28.224
    },
    {
      "size": 2,
      "name": "witbank",
      "lat": -25.832,
      "long": 29.192
    },
    {
      "size": 2,
      "name": "waterkloof",
      "lat": -25.83,
      "long": 28.222
    },
    {
      "size": 2,
      "name": "welkom",
      "lat": -27.998,
      "long": 26.669
    },
    {
      "size": 2,
      "name": "wesselsbrunn",
      "lat": -27.847,
      "long": 26.35
    },
    {
      "size": 2,
      "name": "ysterplaat",
      "lat": -33.9,
      "long": 18.498
    },
    {
      "size": 2,
      "name": "zeerust",
      "lat": -25.599,
      "long": 26.042
    },
    {
      "size": 2,
      "name": "francistown",
      "lat": -21.159,
      "long": 27.474
    },
    {
      "size": 2,
      "name": "jwaneng",
      "lat": -24.602,
      "long": 24.691
    },
    {
      "size": 2,
      "name": "kasane",
      "lat": -17.833,
      "long": 25.162
    },
    {
      "size": 2,
      "name": "maun",
      "lat": -19.972,
      "long": 23.431
    },
    {
      "size": 2,
      "name": "orapa",
      "lat": -21.266,
      "long": 25.32
    },
    {
      "size": 2,
      "name": "gaberone",
      "lat": -24.555,
      "long": 25.918
    },
    {
      "size": 2,
      "name": "selebi-phikwe",
      "lat": -22.058,
      "long": 27.829
    },
    {
      "size": 2,
      "name": "brazzaville",
      "lat": -4.252,
      "long": 15.253
    },
    {
      "size": 2,
      "name": "impfondo",
      "lat": 1.589,
      "long": 18.047
    },
    {
      "size": 2,
      "name": "makoua",
      "lat": -0.021,
      "long": 15.575
    },
    {
      "size": 2,
      "name": "owando",
      "lat": -0.531,
      "long": 15.95
    },
    {
      "size": 2,
      "name": "ouesso",
      "lat": 1.616,
      "long": 16.038
    },
    {
      "size": 2,
      "name": "makabana",
      "lat": -3.483,
      "long": 12.617
    },
    {
      "size": 2,
      "name": "loudima",
      "lat": -4.208,
      "long": 12.661
    },
    {
      "size": 2,
      "name": "pointe-noire",
      "lat": -4.813,
      "long": 11.886
    },
    {
      "size": 2,
      "name": "manzini",
      "lat": -26.529,
      "long": 31.308
    },
    {
      "size": 1,
      "name": "bangui",
      "lat": 4.398,
      "long": 18.519
    },
    {
      "size": 2,
      "name": "bangassou",
      "lat": 4.784,
      "long": 22.781
    },
    {
      "size": 2,
      "name": "birao",
      "lat": 10.236,
      "long": 22.717
    },
    {
      "size": 2,
      "name": "bambari",
      "lat": 5.847,
      "long": 20.649
    },
    {
      "size": 2,
      "name": "n'dele",
      "lat": 8.427,
      "long": 20.635
    },
    {
      "size": 2,
      "name": "bouar",
      "lat": 5.958,
      "long": 15.637
    },
    {
      "size": 2,
      "name": "bria",
      "lat": 6.528,
      "long": 21.989
    },
    {
      "size": 2,
      "name": "berberati",
      "lat": 4.221,
      "long": 15.786
    },
    {
      "size": 2,
      "name": "yalinga",
      "lat": 45.154,
      "long": -89.111
    },
    {
      "size": 2,
      "name": "bata",
      "lat": 1.905,
      "long": 9.806
    },
    {
      "size": 2,
      "name": "malabo",
      "lat": 3.755,
      "long": 8.709
    },
    {
      "size": 2,
      "name": "wide awake",
      "lat": -7.969,
      "long": -14.394
    },
    {
      "size": 2,
      "name": "plaisance",
      "lat": -20.43,
      "long": 57.683
    },
    {
      "size": 2,
      "name": "rodriguez island",
      "lat": -19.758,
      "long": 63.362
    },
    {
      "size": 2,
      "name": "diego garcia island",
      "lat": -7.313,
      "long": 72.411
    },
    {
      "size": 2,
      "name": "tiko",
      "lat": 4.089,
      "long": 9.36
    },
    {
      "size": 0,
      "name": "douala",
      "lat": 4.006,
      "long": 9.719
    },
    {
      "size": 2,
      "name": "batouri",
      "lat": 4.473,
      "long": 14.364
    },
    {
      "size": 2,
      "name": "maroua",
      "lat": 10.451,
      "long": 14.257
    },
    {
      "size": 2,
      "name": "foumban",
      "lat": 5.637,
      "long": 10.751
    },
    {
      "size": 2,
      "name": "n'gaoundere",
      "lat": 7.357,
      "long": 13.559
    },
    {
      "size": 1,
      "name": "garoua",
      "lat": 9.336,
      "long": 13.37
    },
    {
      "size": 2,
      "name": "bafoussam",
      "lat": 5.537,
      "long": 10.354
    },
    {
      "size": 1,
      "name": "bamenda",
      "lat": 6.039,
      "long": 10.123
    },
    {
      "size": 0,
      "name": "yaounde",
      "lat": 3.835,
      "long": 11.524
    },
    {
      "size": 2,
      "name": "kasompe",
      "lat": -12.573,
      "long": 27.894
    },
    {
      "size": 2,
      "name": "kalabo",
      "lat": -14.997,
      "long": 22.648
    },
    {
      "size": 2,
      "name": "livingstone",
      "lat": -17.822,
      "long": 25.822
    },
    {
      "size": 0,
      "name": "lusaka",
      "lat": -15.331,
      "long": 28.453
    },
    {
      "size": 2,
      "name": "mansa",
      "lat": -11.138,
      "long": 28.875
    },
    {
      "size": 2,
      "name": "mfuwe",
      "lat": -13.259,
      "long": 31.936
    },
    {
      "size": 2,
      "name": "mongu",
      "lat": -15.254,
      "long": 23.162
    },
    {
      "size": 2,
      "name": "mufulira",
      "lat": -12.565,
      "long": 28.299
    },
    {
      "size": 1,
      "name": "ndola",
      "lat": -12.998,
      "long": 28.665
    },
    {
      "size": 2,
      "name": "southdowns",
      "lat": -12.9,
      "long": 28.15
    },
    {
      "size": 2,
      "name": "zambezi",
      "lat": -13.539,
      "long": 23.11
    },
    {
      "size": 2,
      "name": "moroni",
      "lat": -11.534,
      "long": 43.272
    },
    {
      "size": 2,
      "name": "moheli",
      "lat": -12.298,
      "long": 43.766
    },
    {
      "size": 2,
      "name": "anjouan",
      "lat": -12.132,
      "long": 44.43
    },
    {
      "size": 2,
      "name": "dzaoudzi",
      "lat": -12.805,
      "long": 45.281
    },
    {
      "size": 2,
      "name": "st.-denis",
      "lat": -20.887,
      "long": 55.51
    },
    {
      "size": 2,
      "name": "st.-pierre",
      "lat": -21.321,
      "long": 55.425
    },
    {
      "size": 0,
      "name": "antananarivo",
      "lat": -18.797,
      "long": 47.479
    },
    {
      "size": 2,
      "name": "miandrivazo",
      "lat": -19.563,
      "long": 45.451
    },
    {
      "size": 2,
      "name": "sainte marie",
      "lat": -17.094,
      "long": 49.816
    },
    {
      "size": 2,
      "name": "toamasina",
      "lat": -18.109,
      "long": 49.392
    },
    {
      "size": 2,
      "name": "morondava",
      "lat": -20.285,
      "long": 44.318
    },
    {
      "size": 2,
      "name": "antsiranana",
      "lat": -12.349,
      "long": 49.292
    },
    {
      "size": 2,
      "name": "mananara",
      "lat": -16.164,
      "long": 49.774
    },
    {
      "size": 2,
      "name": "andapa",
      "lat": -14.652,
      "long": 49.621
    },
    {
      "size": 2,
      "name": "ambilobe",
      "lat": -13.188,
      "long": 48.988
    },
    {
      "size": 2,
      "name": "antalaha",
      "lat": -14.999,
      "long": 50.32
    },
    {
      "size": 2,
      "name": "analalava",
      "lat": -14.629,
      "long": 47.764
    },
    {
      "size": 2,
      "name": "mahajanga",
      "lat": -15.667,
      "long": 46.352
    },
    {
      "size": 2,
      "name": "nosy-be",
      "lat": -13.312,
      "long": 48.314
    },
    {
      "size": 2,
      "name": "besalampy",
      "lat": -16.742,
      "long": 44.481
    },
    {
      "size": 2,
      "name": "maroantsetra",
      "lat": -15.437,
      "long": 49.688
    },
    {
      "size": 2,
      "name": "sambava",
      "lat": -14.279,
      "long": 50.175
    },
    {
      "size": 2,
      "name": "vohemar",
      "lat": -13.376,
      "long": 50.003
    },
    {
      "size": 2,
      "name": "antsohihy",
      "lat": -14.899,
      "long": 47.994
    },
    {
      "size": 2,
      "name": "ampampamena",
      "lat": -13.485,
      "long": 48.633
    },
    {
      "size": 2,
      "name": "tolagnaro",
      "lat": -25.038,
      "long": 46.956
    },
    {
      "size": 2,
      "name": "fianarantsoa",
      "lat": -21.441,
      "long": 47.112
    },
    {
      "size": 2,
      "name": "farafangana",
      "lat": -22.805,
      "long": 47.821
    },
    {
      "size": 2,
      "name": "manakara",
      "lat": -22.12,
      "long": 48.022
    },
    {
      "size": 2,
      "name": "mananjary",
      "lat": -21.202,
      "long": 48.358
    },
    {
      "size": 2,
      "name": "morombe",
      "lat": -21.754,
      "long": 43.375
    },
    {
      "size": 2,
      "name": "toliara",
      "lat": -23.383,
      "long": 43.728
    },
    {
      "size": 2,
      "name": "m'banza-congo",
      "lat": -6.27,
      "long": 14.247
    },
    {
      "size": 2,
      "name": "benguela",
      "lat": -12.609,
      "long": 13.404
    },
    {
      "size": 2,
      "name": "cabinda",
      "lat": -5.597,
      "long": 12.188
    },
    {
      "size": 2,
      "name": "chitato",
      "lat": -7.357,
      "long": 20.804
    },
    {
      "size": 2,
      "name": "camaxilo",
      "lat": -8.374,
      "long": 18.924
    },
    {
      "size": 2,
      "name": "cazombo",
      "lat": -11.894,
      "long": 22.916
    },
    {
      "size": 2,
      "name": "n'giva",
      "lat": -17.045,
      "long": 15.687
    },
    {
      "size": 1,
      "name": "huambo",
      "lat": -12.809,
      "long": 15.76
    },
    {
      "size": 2,
      "name": "kuito",
      "lat": -12.404,
      "long": 16.947
    },
    {
      "size": 2,
      "name": "lobito",
      "lat": -12.371,
      "long": 13.536
    },
    {
      "size": 0,
      "name": "luanda",
      "lat": -8.858,
      "long": 13.231
    },
    {
      "size": 2,
      "name": "malanje",
      "lat": -9.525,
      "long": 16.312
    },
    {
      "size": 2,
      "name": "menongue",
      "lat": -14.658,
      "long": 17.72
    },
    {
      "size": 2,
      "name": "mocamedes",
      "lat": -15.261,
      "long": 12.147
    },
    {
      "size": 2,
      "name": "negage",
      "lat": -7.754,
      "long": 15.287
    },
    {
      "size": 2,
      "name": "porto amboim",
      "lat": -10.722,
      "long": 13.765
    },
    {
      "size": 2,
      "name": "saurimo",
      "lat": -9.689,
      "long": 20.432
    },
    {
      "size": 2,
      "name": "soyo",
      "lat": -6.141,
      "long": 12.372
    },
    {
      "size": 2,
      "name": "toto",
      "lat": -7.147,
      "long": 14.248
    },
    {
      "size": 2,
      "name": "luena",
      "lat": -11.768,
      "long": 19.898
    },